ward,type,location,year,est_cost,id,intersection_1,intersection_2,intersection_3,intersection_4,lat_1,lon_1,query_1,lat_2,lon_2,query_2,lat_3,lon_3,query_3,lat_4,lon_4,query_4
27,Alley Resurfacing Menu,N CARPENTER ST & W GRAND AVE & N ABERDEEN ST & W HUBBARD ST,2017,18214.155,41892,N CARPENTER ST & W GRAND AVE,N ABERDEEN ST & W GRAND AVE,N CARPENTER ST & W HUBBARD ST,N ABERDEEN ST & W HUBBARD ST,41.8911313,-87.6534762,google,41.8911209,-87.6546414,google,41.89002835700006,-87.65342918599998,census,41.8900234,-87.6546142,google
1,Alley Resurfacing Menu,N NOBLE ST & W OHIO ST & N ADA ST & W GRAND AVE,2016,49194.36,627,N NOBLE ST & W OHIO ST,N ADA ST & W OHIO ST,N NOBLE ST & W GRAND AVE,N ADA ST & W GRAND AVE,41.8925079,-87.6623074,google,41.89250862800003,-87.66081371899998,census,41.891041,-87.6622827,google,41.8910592,-87.6607631,google
27,Alley Speed Hump Menu,W FULTON BV & W CARROLL DR & N KEDZIE AV & N ALBANY AV,2005,1750,21588,N KEDZIE AV & W FULTON BV,N ALBANY AV & W FULTON BV,N KEDZIE AV & W CARROLL DR,N ALBANY AV & W CARROLL DR,41.8864202,-87.7062786,google,41.886454678000064,-87.70381445399994,census,41.8875186,-87.7063007,google,41.8875409,-87.7038429,google
33,Alley Speed Hump Menu,W MONTROSE AV & W CULLOM AV & N WHIPPLE ST & N ALBANY AV,2005,3500,26518,N WHIPPLE ST & W MONTROSE AV,N ALBANY AV & W MONTROSE AV,N WHIPPLE ST & W CULLOM AV,N ALBANY AV & W CULLOM AV,41.96121252300003,-87.70458225199997,census,41.961204483000074,-87.70579625799996,census,41.959399553000026,-87.70452195399997,census,41.95938347400005,-87.70574399999998,census
33,Alley Speed Hump Menu,W LAWRENCE AV & W LELAND AV & N TROY ST & N ALBANY AV,2005,1750,26516,N TROY ST & W LAWRENCE AV,N ALBANY AV & W LAWRENCE AV,N TROY ST & W LELAND AV,N ALBANY AV & W LELAND AV,41.96846841900003,-87.70725547799998,census,41.968476459000044,-87.70602941199996,census,41.96664339000006,-87.70719517899994,census,41.96665143000007,-87.70597313299999,census
2,Alley Speed Hump Menu,W MADISON ST & W WARREN AV & N SACRAMENTO AV & N ALBANY AV,2007,1000,1048,N SACRAMENTO AV & W MADISON ST,N ALBANY AV & W MADISON ST,N SACRAMENTO AV & W WARREN AV,N ALBANY AV & W WARREN AV,41.88102783000005,-87.70120554699997,census,41.8809944,-87.7036637,google,41.8819435,-87.7012323,google,41.88192024500006,-87.70368581799994,census
2,Alley Speed Hump Menu,W WASHINGTON & W WARREN AV & N SACRAMENTO AV & N ALBANY AV,2007,1000,1047,N SACRAMENTO AV & W WASHINGTON,N ALBANY AV & W WASHINGTON,N SACRAMENTO AV & W WARREN AV,N ALBANY AV & W WARREN AV,41.882848839000076,-87.70125378599994,census,41.88282471900004,-87.70370993699999,census,41.8819435,-87.7012323,google,41.88192024500006,-87.70368581799994,census
33,Alley Speed Hump Menu,N WHIPPLE ST & W CORNELIA AVE & N ALBANY AVE & W ADDISON ST,2014,2800,26837,N WHIPPLE ST & W CORNELIA AVE,N ALBANY AVE & W CORNELIA AVE,N WHIPPLE ST & W ADDISON ST,N ALBANY AVE & W ADDISON ST,41.94477118300006,-87.70408780599996,census,41.9447574,-87.7052969,google,41.946652491000066,-87.70414810499994,census,41.94664847100006,-87.70536613099995,census
33,Alley Resurfacing Menu,N TROY ST & W AINSLIE ST & W ARGYLE ST & N ALBANY AVE,2021,15471.75,42495,N TROY ST & W AINSLIE ST,N ALBANY AVE & W AINSLIE ST,N TROY ST & W ARGYLE ST,N ALBANY AVE & W ARGYLE ST,41.97028540800005,-87.70730371599996,census,41.9702899,-87.7060809,google,41.972098,-87.707327,google,41.972110437000026,-87.70613392899998,census
33,Alley Resurfacing Menu,N TROY ST & W BERTEAU AVE & W BELLE PLAINE AVE & N ALBANY AVE,2021,19852.13,42487,N TROY ST & W BERTEAU AVE,N ALBANY AVE & W BERTEAU AVE,N TROY ST & W BELLE PLAINE AVE,N ALBANY AVE & W BELLE PLAINE AVE,41.95756246500008,-87.70690574699995,census,41.9575632,-87.7056704,google,41.955748,-87.7068506,google,41.95575753500003,-87.70562742299995,census
33,Alley Resurfacing Menu,N WHIPPLE ST & W BELLE PLAINE AVE & N ALBANY AVE & W BERTEAU AVE,2019,40064.39,27042,N WHIPPLE ST & W BELLE PLAINE AVE,N ALBANY AVE & W BELLE PLAINE AVE,N WHIPPLE ST & W BERTEAU AVE,N ALBANY AVE & W BERTEAU AVE,41.955765575000044,-87.70440537699994,census,41.9557612,-87.7056269,google,41.95757854400006,-87.70446567599998,census,41.9575632,-87.7056704,google
26,Alley Resurfacing Menu,N TROY ST & W WABANSIA AVE & W BLOOMINGDALE AVE & N ALBANY AVE,2022,14467.27,41854,N TROY ST & W WABANSIA AVE,N ALBANY AVE & W WABANSIA AVE,N TROY ST & W BLOOMINGDALE AVE,N ALBANY AVE & W BLOOMINGDALE AVE,41.911952823000036,-87.70570782099998,census,41.91196488300005,-87.70456617299999,census,41.9137401,-87.7057459,google,41.9139028,-87.7051725,google
33,Alley Resurfacing Menu,N WHIPPLE ST & W IRVING PARK RD & W BYRON ST & N ALBANY AVE,2022,23321.28,27142,N WHIPPLE ST & W IRVING PARK RD,N ALBANY AVE & W IRVING PARK RD,N WHIPPLE ST & W BYRON ST,N ALBANY AVE & W BYRON ST,41.95394858600008,-87.70434909899996,census,41.95394054600007,-87.70557114499996,census,41.95213561700007,-87.70429683999998,census,41.9521225,-87.7055106,google
33,Alley Resurfacing Menu,N TROY ST & W ARGYLE ST & N ALBANY AVE & W CARMEN AVE,2015,32718,26877,N TROY ST & W ARGYLE ST,N ALBANY AVE & W ARGYLE ST,N TROY ST & W CARMEN AVE,N ALBANY AVE & W CARMEN AVE,41.97210239700007,-87.70735597499998,census,41.9721028,-87.7061207,google,41.97393144600005,-87.70740421299996,census,41.9739445,-87.7061782,google
1,Concrete Alley Menu,W ARMITAGE AVE & N WHIPPLE ST & N ALBANY AVE & W CORTLAND ST,2022,320000,914,N WHIPPLE ST & W ARMITAGE AVE,N ALBANY AVE & W ARMITAGE AVE,N WHIPPLE ST & W CORTLAND ST,N ALBANY AVE & W CORTLAND ST,41.9174197,-87.7039384,google,41.9174046,-87.7052479,google,41.91560288100004,-87.70389083199996,census,41.9155903,-87.705213,google
33,Alley Speed Hump Menu,W MONTROSE AVE & N TROY ST & W CULLOM AVE & N ALBANY AVE,2015,2100,26892,N TROY ST & W MONTROSE AVE,N ALBANY AVE & W MONTROSE AVE,N TROY ST & W CULLOM AVE,N ALBANY AVE & W CULLOM AVE,41.96119644300006,-87.70702232399998,census,41.961204483000074,-87.70579625799996,census,41.95937141400003,-87.70696604599999,census,41.9593913,-87.7057466,google
33,Alley Resurfacing Menu,N WHIPPLE ST & W BERTEAU AVE & N ALBANY AVE & W CULLOM AVE,2016,40140.81,26926,N WHIPPLE ST & W BERTEAU AVE,N ALBANY AVE & W BERTEAU AVE,N WHIPPLE ST & W CULLOM AVE,N ALBANY AVE & W CULLOM AVE,41.95757854400006,-87.70446567599998,census,41.9575632,-87.7056704,google,41.959399553000026,-87.70452195399997,census,41.9593913,-87.7057466,google
33,Alley Resurfacing Menu,N WHIPPLE ST & W BERTEAU AVE & N ALBANY AVE & W CULLOM AVE,2016,6150.49,26936,N WHIPPLE ST & W BERTEAU AVE,N ALBANY AVE & W BERTEAU AVE,N WHIPPLE ST & W CULLOM AVE,N ALBANY AVE & W CULLOM AVE,41.95757854400006,-87.70446567599998,census,41.9575632,-87.7056704,google,41.959399553000026,-87.70452195399997,census,41.9593913,-87.7057466,google
33,Alley Resurfacing Menu,N TROY ST & W SUNNYSIDE AVE & W MONTROSE AVE & N ALBANY AVE,2021,19769.23,42489,N TROY ST & W SUNNYSIDE AVE,N ALBANY AVE & W SUNNYSIDE AVE,N TROY ST & W MONTROSE AVE,N ALBANY AVE & W MONTROSE AVE,41.96302549200004,-87.70708262199997,census,41.963033532000054,-87.70585655699995,census,41.9611873,-87.7070167,google,41.9611982,-87.7058024,google
33,Alley Resurfacing Menu,N WHIPPLE ST & W CULLOM AVE & W MONTROSE AVE & N ALBANY AVE,2021,55105.68,27082,N WHIPPLE ST & W CULLOM AVE,N ALBANY AVE & W CULLOM AVE,N WHIPPLE ST & W MONTROSE AVE,N ALBANY AVE & W MONTROSE AVE,41.959399553000026,-87.70452195399997,census,41.9593913,-87.7057466,google,41.96121252300003,-87.70458225199997,census,41.9611982,-87.7058024,google
27,Alley Resurfacing Menu,W FULTON BLVD & N KEDZIE AVE & W WALNUT ST & N ALBANY AVE,2015,36167,22075,N KEDZIE AVE & W FULTON BLVD,N ALBANY AVE & W FULTON BLVD,N KEDZIE AVE & W WALNUT ST,N ALBANY AVE & W WALNUT ST,41.886422518000074,-87.70627864499994,census,41.8864514,-87.703808,google,41.8853888,-87.7062426,google,41.8854175,-87.7037832,google
33,Alley Resurfacing Menu,W ADDISON ST & N WHIPPLE ST & W WAVELAND AVE & N ALBANY AVE,2018,35227.48,27009,N WHIPPLE ST & W ADDISON ST,N ALBANY AVE & W ADDISON ST,N WHIPPLE ST & W WAVELAND AVE,N ALBANY AVE & W WAVELAND AVE,41.946652491000066,-87.70414810499994,census,41.9466488,-87.7053747,google,41.94847751900005,-87.70420036299998,census,41.9484759,-87.705422,google
44,Alley Resurface Menu,N KENMORE AV & N ALTA VISTA TR & W BYRON ST & W GRACE ST,2009,24160,35341,N KENMORE AV & W BYRON ST,N ALTA VISTA TR & W BYRON ST,N KENMORE AV & W GRACE ST,N ALTA VISTA TR & W GRACE ST,41.952658202000066,-87.65570042199994,census,41.952658202000066,-87.65570042199994,census,41.951106526000046,-87.65565218399996,census,41.951106526000046,-87.65565218399996,census
1,Alley Resurfacing Menu,W GRAND AVE & N ASHLAND AVE & N ARMOUR ST & W HUBBARD ST,2021,13032.105,40261,N ASHLAND AVE & W GRAND AVE,N ARMOUR ST & W GRAND AVE,N ASHLAND AVE & W HUBBARD ST,N ARMOUR ST & W HUBBARD ST,41.89097705100005,-87.66714102199995,census,41.89100117000004,-87.66551296699998,census,41.889887661000046,-87.66710886299995,census,41.889907761000075,-87.66548080799998,census
27,Alley Resurface Menu,N ASHLAND AV & W HUBBARD ST & W KINZIE ST & N ARMOUR ST,2009,17634,21815,N ASHLAND AV & W HUBBARD ST,N ARMOUR ST & W HUBBARD ST,N ASHLAND AV & W KINZIE ST,N ARMOUR ST & W KINZIE ST,41.889887661000046,-87.66710886299995,census,41.889907761000075,-87.66548080799998,census,41.888854550000076,-87.66706866399994,census,41.888858570000025,-87.66545266899999,census
27,Alley Resurface Menu,W ERIE ST & W OHIO ST & N BISHOP ST & N ARMOUR ST,2011,14024,21927,N BISHOP ST & W ERIE ST,N ARMOUR ST & W ERIE ST,N BISHOP ST & W OHIO ST,N ARMOUR ST & W OHIO ST,41.89339300300003,-87.66395727099996,census,41.893372904000046,-87.66557728599997,census,41.89247646900003,-87.66392913199996,census,41.89245636900006,-87.66555316599994,census
50,Alley Speed Hump Menu,N CAMPBELL AV & N ARTESIAN AV & W DEVON AV & W ARTHUR AV,2007,500,39806,N CAMPBELL AV & W DEVON AV,N ARTESIAN AV & W DEVON AV,N CAMPBELL AV & W ARTHUR AV,N ARTESIAN AV & W ARTHUR AV,41.9976884,-87.692319,google,41.997713100000055,-87.69110356999994,census,41.99950596900004,-87.69236983499997,census,41.99952606900007,-87.69114778899996,census
47,Alley Speed Hump Menu,N WESTERN AV & N ARTESIAN AV & W LELAND AV & W LAWRENCE AV,2005,1750,37289,N WESTERN AV & W LELAND AV,N ARTESIAN AV & W LELAND AV,N WESTERN AV & W LAWRENCE AV,N ARTESIAN AV & W LAWRENCE AV,41.9667959,-87.6889375,google,41.96677604700005,-87.69007045899997,census,41.9686121,-87.6888226,google,41.968605095000044,-87.69012673799995,census
1,Alley Resurfacing Menu (1-1),W FULLERTON AVE & N WESTERN AVE & N ARTESIAN AVE & W ALTGELD ST,2019,13048.04,40238,N WESTERN AVE & W FULLERTON AVE,N ARTESIAN AVE & W FULLERTON AVE,N WESTERN AVE & W ALTGELD ST,N ARTESIAN AVE & W ALTGELD ST,41.9249034,-87.6877228,google,41.9248961,-87.6888697,google,41.92673394900004,-87.68785148099994,census,41.92670982900006,-87.68892881099998,census
40,Alley Speed Hump Menu,N CAMPBELL AVE & W HOLLYWOOD AVE & N ARTESIAN AVE & W BRYN MAWR AVE,2017,1400,32557,N CAMPBELL AVE & W HOLLYWOOD AVE,N ARTESIAN AVE & W HOLLYWOOD AVE,N CAMPBELL AVE & W BRYN MAWR AVE,N ARTESIAN AVE & W BRYN MAWR AVE,41.98497809700007,-87.69192764699994,census,41.98498613600003,-87.69071364099995,census,41.9831538,-87.6918676,google,41.9831575,-87.6906564,google
26,Concrete Alley Menu,W OHIO ST & N CAMPBELL AVE & W GRAND AVE & N ARTESIAN AVE,2018,178000,21453,N CAMPBELL AVE & W OHIO ST,N ARTESIAN AVE & W OHIO ST,N CAMPBELL AVE & W GRAND AVE,N ARTESIAN AVE & W GRAND AVE,41.8920868,-87.6891881,google,41.89209,-87.6879473,google,41.8913511,-87.6891833,google,41.890847,-87.6879238,google
26,Alley Resurfacing Menu,N WESTERN AVE & W OHIO ST & N ARTESIAN AVE & W GRAND AVE,2019,36396.35,21480,N WESTERN AVE & W OHIO ST,N ARTESIAN AVE & W OHIO ST,N WESTERN AVE & W GRAND AVE,N ARTESIAN AVE & W GRAND AVE,41.8921074,-87.6868018,google,41.89209,-87.6879473,google,41.8906552,-87.6866342,google,41.890847,-87.6879238,google
27,Alley Resurfacing Menu,N WESTERN AVE & W GRAND AVE & N ARTESIAN AVE & W HUBBARD ST,2016,41094.1,22115,N WESTERN AVE & W GRAND AVE,N ARTESIAN AVE & W GRAND AVE,N WESTERN AVE & W HUBBARD ST,N ARTESIAN AVE & W HUBBARD ST,41.8906552,-87.6866342,google,41.890847,-87.6879238,google,41.8895705,-87.6866037,google,41.8895378,-87.6878961,google
32,Alley Resurfacing Menu,W DIVERSEY AVE & N WESTERN AVE & W SCHUBERT AVE & N ARTESIAN AVE,2016,33861.79,26219,N WESTERN AVE & W DIVERSEY AVE,N ARTESIAN AVE & W DIVERSEY AVE,N WESTERN AVE & W SCHUBERT AVE,N ARTESIAN AVE & W SCHUBERT AVE,41.9321771,-87.6878471,google,41.93216079700005,-87.68912578599998,census,41.9303328,-87.6877762,google,41.93034380800003,-87.68906146699999,census
47,Alley Speed Hump Menu,W ADDISON ST & N CAMPBELL AVE & W WAVELAND AVE & N ARTESIAN AVE,2014,700,37784,N CAMPBELL AVE & W ADDISON ST,N ARTESIAN AVE & W ADDISON ST,N CAMPBELL AVE & W WAVELAND AVE,N ARTESIAN AVE & W WAVELAND AVE,41.94672,-87.6906803,google,41.94673288800004,-87.68946747599995,census,41.948512,-87.6907341,google,41.94852977800008,-87.68951973499998,census
40,Concrete Alley Menu,N BOSWORTH AV & N ASHLAND AV & W ARTHUR AV & W ALBION AV,2007,158000,32121,N BOSWORTH AV & W ARTHUR AV,N ASHLAND AV & W ARTHUR AV,N BOSWORTH AV & W ALBION AV,N ASHLAND AV & W ALBION AV,41.999924038000074,-87.66921930299998,census,41.99992805800008,-87.67044134899999,census,42.00174504700004,-87.66927558199995,census,42.0017438,-87.6704891,google
40,Concrete Alley Menu,N BOSWORTH AV & N ASHLAND AV & W DEVON AV & W ARTHUR AV,2008,25000,32180,N BOSWORTH AV & W DEVON AV,N ASHLAND AV & W DEVON AV,N BOSWORTH AV & W ARTHUR AV,N ASHLAND AV & W ARTHUR AV,41.9981008,-87.6691621,google,41.9520221,-87.6690442,google,41.999924038000074,-87.66921930299998,census,41.99992805800008,-87.67044134899999,census
1,Alley Speed Hump Menu,N PAULINA ST & N ASHLAND AV & W JULIAN ST & W BEACH AV,2008,500,240,N PAULINA ST & W JULIAN ST,N ASHLAND AV & W JULIAN ST,N PAULINA ST & W BEACH AV,N ASHLAND AV & W BEACH AV,41.908333,-87.6700519,google,41.908359044000065,-87.66762340799994,census,41.9075798,-87.6700349,google,41.9075948,-87.6676808,google
1,Concrete Alley Menu,W WALTON ST & W CHESTNUT ST & N GREENVIEW AV & N ASHLAND AV,2009,54000,314,N GREENVIEW AV & W WALTON ST,N ASHLAND AV & W WALTON ST,N GREENVIEW AV & W CHESTNUT ST,N ASHLAND AV & W CHESTNUT ST,41.89884397000003,-87.66491802399997,census,41.89857463800007,-87.66735809599999,census,41.8979437,-87.6648736,google,41.897891257000026,-87.66733799599996,census
27,Concrete Alley Menu,W THOMAS ST & W CORTEZ ST & N MILWAUKEE AV & N ASHLAND AV,2009,195000,21817,N MILWAUKEE AV & W THOMAS ST,N ASHLAND AV & W THOMAS ST,N MILWAUKEE AV & W CORTEZ ST,N ASHLAND AV & W CORTEZ ST,41.9016292,-87.6637779,google,41.9015244,-87.6673794,google,41.90011023500006,-87.66140062299996,census,41.90104284900008,-87.66742643399994,census
32,Alley Resurface Menu,W MONTANA ST & W FULLERTON AV & N GREENVIEW AV & N ASHLAND AV,2007,30146,25833,N GREENVIEW AV & W MONTANA ST,N ASHLAND AV & W MONTANA ST,N GREENVIEW AV & W FULLERTON AV,N ASHLAND AV & W FULLERTON AV,41.9260835,-87.6657562,google,41.9260556,-87.6680831,google,41.925186292000035,-87.66576621999997,census,41.9251462,-87.6682275,google
46,Alley Speed Hump Menu,W AINSLIE ST & W LAWRENCE AV & N CLARK ST & N ASHLAND AV,2005,2625,36774,N CLARK ST & W AINSLIE ST,N ASHLAND AV & W AINSLIE ST,N CLARK ST & W LAWRENCE AV,N ASHLAND AV & W LAWRENCE AV,41.97187728400007,-87.66783244199996,census,41.9718459,-87.669431,google,41.96890256700004,-87.66749477199994,census,41.968873,-87.6695026,google
32,Alley Resurface Menu,W ALTGELD ST & N GREENVIEW AV & W MONTANA ST & N ASHLAND AV,2010,19767,25973,N GREENVIEW AV & W ALTGELD ST,N ASHLAND AV & W ALTGELD ST,N GREENVIEW AV & W MONTANA ST,N ASHLAND AV & W MONTANA ST,41.92699926100005,-87.66579435899996,census,41.9269519,-87.6682867,google,41.9260835,-87.6657562,google,41.9260556,-87.6680831,google
40,Concrete Alley Menu,W HOLLYWOOD AV & W OLIVE AV & N HERMITAGE AV & N ASHLAND AV,2009,44000,32221,N HERMITAGE AV & W HOLLYWOOD AV,N ASHLAND AV & W HOLLYWOOD AV,N HERMITAGE AV & W OLIVE AV,N ASHLAND AV & W OLIVE AV,41.985066534000055,-87.67305829599997,census,41.98511879300003,-87.66985846599994,census,41.984246477000056,-87.67303417699998,census,41.984334915000034,-87.66983836599996,census
49,Alley Speed Hump Menu,W COLUMBIA AV & N CLARK ST & W PRATT AV & N ASHLAND AV,2006,1500,39088,N CLARK ST & W COLUMBIA AV,N ASHLAND AV & W COLUMBIA AV,N CLARK ST & W PRATT AV,N ASHLAND AV & W PRATT AV,42.0043902,-87.672759,google,42.0044297,-87.6705647,google,42.005334806000064,-87.67309849499998,census,42.005387065000036,-87.66994690299998,census
40,Concrete Alley Menu,W EDGEWATER AV & W ROSEHILL DR & N HERMITAGE AV & N ASHLAND AV,2005,139825,32012,N HERMITAGE AV & W EDGEWATER AV,N ASHLAND AV & W EDGEWATER AV,N HERMITAGE AV & W ROSEHILL DR,N ASHLAND AV & W ROSEHILL DR,41.98588659100005,-87.67307839499995,census,41.985938850000025,-87.66987052499996,census,41.98669860800004,-87.67308241499995,census,41.986754887000075,-87.66985846599994,census
46,Alley Speed Hump Menu,N CLARK ST & N ASHLAND AV & W AINSLIE ST & W WINNEMAC AV,2006,1000,36800,N CLARK ST & W AINSLIE ST,N ASHLAND AV & W AINSLIE ST,N CLARK ST & W WINNEMAC AV,N ASHLAND AV & W WINNEMAC AV,41.97187728400007,-87.66783244199996,census,41.9718459,-87.669431,google,41.9733969,-87.6680766,google,41.97343700000005,-87.66955697399999,census
46,Alley Speed Hump Menu,N CLARK ST & N ASHLAND AV & W CARMEN AV & W WINNEMAC AV,2006,2000,36801,N CLARK ST & W CARMEN AV,N ASHLAND AV & W CARMEN AV,N CLARK ST & W WINNEMAC AV,N ASHLAND AV & W WINNEMAC AV,41.97436961400007,-87.66820629199998,census,41.9743345,-87.6696508,google,41.9733969,-87.6680766,google,41.97343700000005,-87.66955697399999,census
47,Alley Speed Hump Menu,N RAVENSWOOD & N ASHLAND AV & W CARMEN AV & W WINONA ST,2008,3000,37465,N RAVENSWOOD & W CARMEN AV,N ASHLAND AV & W CARMEN AV,N RAVENSWOOD & W WINONA ST,N ASHLAND AV & W WINONA ST,41.974281176000034,-87.67435671899995,census,41.9743345,-87.6696508,google,41.9751815,-87.6743839,google,41.97524996900006,-87.66959315299994,census
32,Miscellaneous-CDOT,N CLYBOURN AVE & N ASHLAND AVE & W WEBSTER AVE & N DOMINICK ST,2010,2500,26008,N CLYBOURN AVE & W WEBSTER AVE,N ASHLAND AVE & W WEBSTER AVE,N DOMINICK ST & W WEBSTER AVE,N ASHLAND AVE & N CLYBOURN AVE,41.92161663200005,-87.66439543899997,census,41.9215367,-87.6686977,google,41.921600553000076,-87.66649783999998,census,41.924281817000065,-87.66810981499998,census
1,Alley Speed Hump Menu,N ASHLAND AVE & N PAULINA ST & W DIVISION ST & N MILWAUKEE AVE,2011,2200,382,N ASHLAND AVE & W DIVISION ST,N PAULINA ST & W DIVISION ST,N MILWAUKEE AVE & W DIVISION ST,N ASHLAND AVE & N MILWAUKEE AVE,41.90334624400003,-87.66749477199994,census,41.9032963,-87.6699345,google,41.90335830400005,-87.66648175999995,census,41.9040756,-87.6675911,google
1,Alley Resurfacing Menu,N ASHLAND AVE & N MILWAUKEE AVE & W BLACKHAWK ST & N PAULINA ST,2020,7710.855,40254,N ASHLAND AVE & W BLACKHAWK ST,N MILWAUKEE AVE & W BLACKHAWK ST,N PAULINA ST & W BLACKHAWK ST,N ASHLAND AVE & N MILWAUKEE AVE,41.9069482,-87.6676636,google,41.907161,-87.6554477,google,41.90699228200003,-87.67002730099995,census,41.9040756,-87.6675911,google
47,Alley Resurfacing Menu,N CLARK ST & W LAWRENCE AVE & N ASHLAND AVE & W AINSLIE ST,2016,56992.79,37914,N CLARK ST & W LAWRENCE AVE,N ASHLAND AVE & W LAWRENCE AVE,N CLARK ST & W AINSLIE ST,N ASHLAND AVE & W AINSLIE ST,41.9688949,-87.6675066,google,41.968873,-87.6695026,google,41.97187728400007,-87.66783244199996,census,41.9718459,-87.669431,google
40,Concrete Alley Menu,W RASCHER AVE & N PAULINA ST & W CATALPA AVE & N ASHLAND AVE,2019,125000,42899,N PAULINA ST & W RASCHER AVE,N ASHLAND AVE & W RASCHER AVE,N PAULINA ST & W CATALPA AVE,N ASHLAND AVE & W CATALPA AVE,41.98070093600006,-87.67218597999994,census,41.9807273,-87.6698045,google,41.9816026,-87.6722208,google,41.981635,-87.6698339,google
27,Concrete Alley Menu,W THOMAS ST & W CORTEZ ST & N MILWAUKEE AVE & N ASHLAND AVE,2012,291000,21959,N MILWAUKEE AVE & W THOMAS ST,N ASHLAND AVE & W THOMAS ST,N MILWAUKEE AVE & W CORTEZ ST,N ASHLAND AVE & W CORTEZ ST,41.9016292,-87.6637779,google,41.9015244,-87.6673794,google,41.90011023500006,-87.66140062299996,census,41.9010313,-87.6674893,google
27,Miscellaneous Other,W THOMAS ST & N MILWAUKEE AVE & W CORTEZ ST & N ASHLAND AVE,2013,20000,21988,N MILWAUKEE AVE & W THOMAS ST,N ASHLAND AVE & W THOMAS ST,N MILWAUKEE AVE & W CORTEZ ST,N ASHLAND AVE & W CORTEZ ST,41.9016292,-87.6637779,google,41.9015244,-87.6673794,google,41.90011023500006,-87.66140062299996,census,41.9010313,-87.6674893,google
47,Concrete Alley Menu,N GREENVIEW AVE & N ASHLAND AVE & W MONTROSE AVE & W CULLOM AVE,2012,227000,37668,N GREENVIEW AVE & W MONTROSE AVE,N ASHLAND AVE & W MONTROSE AVE,N GREENVIEW AVE & W CULLOM AVE,N ASHLAND AVE & W CULLOM AVE,41.96161451100005,-87.66772390499995,census,41.9615892,-87.6693202,google,41.959789482000076,-87.66768772599994,census,41.95976938300004,-87.66920322399994,census
44,Alley Resurfacing Menu,N BOSWORTH AVE & W WAVELAND AVE & N ASHLAND AVE & W GRACE ST,2014,26755,35618,N BOSWORTH AVE & W WAVELAND AVE,N ASHLAND AVE & W WAVELAND AVE,N BOSWORTH AVE & W GRACE ST,N ASHLAND AVE & W GRACE ST,41.948835289000044,-87.66769174599995,census,41.94881519000006,-87.66890575199994,census,41.950660318000075,-87.66773596499996,census,41.9506291,-87.6690158,google
40,Alley Resurfacing Menu,W CATALPA AVE & N PAULINA ST & W GREGORY ST & N ASHLAND AVE,2018,7023.08,42887,N PAULINA ST & W CATALPA AVE,N ASHLAND AVE & W CATALPA AVE,N PAULINA ST & W GREGORY ST,N ASHLAND AVE & W GREGORY ST,41.9816026,-87.6722208,google,41.981653650000055,-87.66976198799995,census,41.982525965000036,-87.67224225899997,census,41.9825384,-87.6698563,google
44,Alley Resurfacing Menu,W SCHOOL ST & N GREENVIEW AVE & W HENDERSON ST & N ASHLAND AVE,2015,25509,35700,N GREENVIEW AVE & W SCHOOL ST,N ASHLAND AVE & W SCHOOL ST,N GREENVIEW AVE & W HENDERSON ST,N ASHLAND AVE & W HENDERSON ST,41.941563313000074,-87.66629282499997,census,41.9415116,-87.6687069,google,41.942467788000044,-87.66631694499995,census,41.942429,-87.6687364,google
49,Alley Resurfacing Menu,N BOSWORTH AVE & W HOWARD ST & N ASHLAND AVE & W JONQUIL TER,2015,36202,39433,N BOSWORTH AVE & W HOWARD ST,N ASHLAND AVE & W HOWARD ST,N BOSWORTH AVE & W JONQUIL TER,N ASHLAND AVE & W JONQUIL TER,42.019364213000074,-87.66949667599994,census,42.0193622,-87.6713202,google,42.02114502300003,-87.66947657599997,census,42.0211508,-87.670691,google
32,Alley Speed Hump Menu,W ALTGELD ST & N GREENVIEW AVE & W MONTANA ST & N ASHLAND AVE,2017,2100,26274,N GREENVIEW AVE & W ALTGELD ST,N ASHLAND AVE & W ALTGELD ST,N GREENVIEW AVE & W MONTANA ST,N ASHLAND AVE & W MONTANA ST,41.92699926100005,-87.66579435899996,census,41.9269519,-87.6682867,google,41.9260835,-87.6657562,google,41.9260556,-87.6680831,google
49,Alley Resurfacing Menu (1-1),N CLARK ST & W COLUMBIA AVE & N ASHLAND AVE & W NORTH SHORE AVE,2017,35060.43,39535,N CLARK ST & W COLUMBIA AVE,N ASHLAND AVE & W COLUMBIA AVE,N CLARK ST & W NORTH SHORE AVE,N ASHLAND AVE & W NORTH SHORE AVE,42.00439013300007,-87.67278092399994,census,42.0044297,-87.6705647,google,42.003517817000045,-87.67247943199999,census,42.003543,-87.6705327,google
40,Alley Speed Hump Menu,N BOSWORTH AVE & W ARTHUR AVE & W SCHREIBER AVE & N ASHLAND AVE,2013,1400,32373,N BOSWORTH AVE & W ARTHUR AVE,N ASHLAND AVE & W ARTHUR AVE,N BOSWORTH AVE & W SCHREIBER AVE,N ASHLAND AVE & W SCHREIBER AVE,41.999924038000074,-87.66921930299998,census,41.99992805800008,-87.67044134899999,census,41.99899142400005,-87.66919116399998,census,41.9520221,-87.6690442,google
49,Alley Resurfacing Menu,N CLARK ST & W ALBION AVE & N ASHLAND AVE & W WALLEN AVE,2017,3402.36,39540,N CLARK ST & W ALBION AVE,N ASHLAND AVE & W ALBION AVE,N CLARK ST & W WALLEN AVE,N ASHLAND AVE & W WALLEN AVE,42.00170484800003,-87.67185634999998,census,42.0017438,-87.6704891,google,42.002613342000075,-87.67216990099996,census,42.0026543,-87.6705018,google
49,Alley Resurfacing Menu,N CLARK ST & W ALBION AVE & N ASHLAND AVE & W WALLEN AVE,2018,49062.3,39573,N CLARK ST & W ALBION AVE,N ASHLAND AVE & W ALBION AVE,N CLARK ST & W WALLEN AVE,N ASHLAND AVE & W WALLEN AVE,42.00170484800003,-87.67185634999998,census,42.0017438,-87.6704891,google,42.002613342000075,-87.67216990099996,census,42.0026543,-87.6705018,google
27,Alley Speed Hump Menu,W AUGUSTA BLVD & W WALTON ST & N GREENVIEW AVE & N ASHLAND AVE,2011,2200,21931,N GREENVIEW AVE & W AUGUSTA BLVD,N ASHLAND AVE & W AUGUSTA BLVD,N GREENVIEW AVE & W WALTON ST,N ASHLAND AVE & W WALTON ST,41.89974844500006,-87.66494616299997,census,41.8996937,-87.6674464,google,41.89884397000003,-87.66491802399997,census,41.8985653,-87.6674109,google
32,Alley Resurfacing Menu,W OAKDALE AVE & N GREENVIEW AVE & W WELLINGTON AVE & N ASHLAND AVE,2014,30529,26133,N GREENVIEW AVE & W OAKDALE AVE,N ASHLAND AVE & W OAKDALE AVE,N GREENVIEW AVE & W WELLINGTON AVE,N ASHLAND AVE & W WELLINGTON AVE,41.93517169200004,-87.66607977099994,census,41.9351914,-87.6685734,google,41.93608420700008,-87.66611594999995,census,41.9360528,-87.6685991,google
32,Concrete Alley Menu,W GEORGE ST & W WOLFRAM ST & N GREENVIEW AVE & N ASHLAND AVE,2011,24000,26043,N GREENVIEW AVE & W GEORGE ST,N ASHLAND AVE & W GEORGE ST,N GREENVIEW AVE & W WOLFRAM ST,N ASHLAND AVE & W WOLFRAM ST,41.93426319800005,-87.66604761199994,census,41.9342224,-87.6683973,google,41.93335068300007,-87.66601545299994,census,41.9333064,-87.6685023,google
49,Alley Resurfacing Menu,W MORSE AVE & N CLARK ST & W FARWELL AVE & N ASHLAND BLVD,2018,28793.75,39585,N CLARK ST & W MORSE AVE,N ASHLAND BLVD & W MORSE AVE,N CLARK ST & W FARWELL AVE,N ASHLAND BLVD & W FARWELL AVE,42.0077674,-87.6736696,google,42.0078309,-87.6700344,google,42.00656087200008,-87.67339596599999,census,42.006621170000074,-87.66998710199994,census
49,Alley Resurfacing Menu,W PRATT BLVD & N GREENVIEW AVE & N ASHLAND BLVD & W FARWELL AVE,2022,18793.085,43566,N GREENVIEW AVE & W PRATT BLVD,N ASHLAND BLVD & W PRATT BLVD,N GREENVIEW AVE & W FARWELL AVE,N ASHLAND BLVD & W FARWELL AVE,42.0054111,-87.667778,google,42.005387065000036,-87.66994690299998,census,42.00665734900008,-87.66782038299993,census,42.006621170000074,-87.66998710199994,census
49,Alley Resurfacing Menu,W SHERWIN AVE & N PAULINA ST & W JARVIS AVE & N ASHLAND BLVD,2016,30933.44,39485,N PAULINA ST & W SHERWIN AVE,N ASHLAND BLVD & W SHERWIN AVE,N PAULINA ST & W JARVIS AVE,N ASHLAND BLVD & W JARVIS AVE,42.01488605800006,-87.67244325299998,census,42.014930277000076,-87.67027251399998,census,42.015951329000075,-87.67247943199999,census,42.015995547000045,-87.67030869299998,census
49,Alley Resurfacing Menu,W FARWELL AVE & N GREENVIEW AVE & N ASHLAND BLVD & W MORSE AVE,2022,24325.755,43564,N GREENVIEW AVE & W FARWELL AVE,N ASHLAND BLVD & W FARWELL AVE,N GREENVIEW AVE & W MORSE AVE,N ASHLAND BLVD & W MORSE AVE,42.00665734900008,-87.66782038299993,census,42.006621170000074,-87.66998710199994,census,42.0078763,-87.6678639,google,42.0078309,-87.6700344,google
32,Alley Resurface Menu,W GEORGE ST & W WOLFRAM ST & N GREENVIEW AV & N ASHLAND BV,2010,32394,25978,N GREENVIEW AV & W GEORGE ST,N ASHLAND BV & W GEORGE ST,N GREENVIEW AV & W WOLFRAM ST,N ASHLAND BV & W WOLFRAM ST,41.93426319800005,-87.66604761199994,census,41.9342224,-87.6683973,google,41.93335068300007,-87.66601545299994,census,41.932975,-87.6843798,google
43,Alley Resurface Menu,N STATE ST & E GOETHE ST & N ASTOR ST & E BANKS ST,2007,9359,34425,N STATE ST & E GOETHE ST,N ASTOR ST & E GOETHE ST,N STATE ST & E BANKS ST,N ASTOR ST & E BANKS ST,41.90582249500005,-87.62873903799994,census,41.905830535000064,-87.62731197799997,census,41.9067474,-87.6287767,google,41.90678726800007,-87.62750895199997,census
43,Alley Speed Hump Menu,E SCOTT ST & E DIVISION ST & N STATE PW & N ASTOR ST,2009,1575,34559,N STATE PW & E SCOTT ST,N ASTOR ST & E SCOTT ST,N STATE PW & E DIVISION ST,N ASTOR ST & E DIVISION ST,41.9048793,-87.6270749,google,41.904885861000025,-87.62707882399997,census,41.903957,-87.626867,google,41.90397334700003,-87.62685371099997,census
43,Alley Resurface Menu,N STONE ST & N ASTOR ST & E SCOTT ST & E DIVISION ST,2006,8773,34368,N STONE ST & E SCOTT ST,N ASTOR ST & E SCOTT ST,N STONE ST & E DIVISION ST,N ASTOR ST & E DIVISION ST,41.904905960000065,-87.62584069899998,census,41.904885861000025,-87.62707882399997,census,41.9039953,-87.6258224,google,41.90397334700003,-87.62685371099997,census
43,Concrete Alley Menu,E SCOTT ST & N STONE ST & E DIVISION ST & N ASTOR ST,2018,18500,43014,N STONE ST & E SCOTT ST,N ASTOR ST & E SCOTT ST,N STONE ST & E DIVISION ST,N ASTOR ST & E DIVISION ST,41.904905960000065,-87.62584069899998,census,41.904885861000025,-87.62707882399997,census,41.9039953,-87.6258224,google,41.90397334700003,-87.62685371099997,census
43,Alley Speed Hump Menu,E BANKS ST & N STATE PKWY & E GOETHE ST & N ASTOR ST,2013,2100,34824,N STATE PKWY & E BANKS ST,N ASTOR ST & E BANKS ST,N STATE PKWY & E GOETHE ST,N ASTOR ST & E GOETHE ST,41.9067474,-87.6287767,google,41.90678726800007,-87.62750895199997,census,41.9058067,-87.6287284,google,41.905830535000064,-87.62731197799997,census
43,Alley Resurfacing Menu,N STATE PKWY & E BURTON PL & N ASTOR ST & E NORTH AVE,2019,10316.36,35148,N STATE PKWY & E BURTON PL,N ASTOR ST & E BURTON PL,N STATE PKWY & E NORTH AVE,N ASTOR ST & E NORTH AVE,41.9094835,-87.6288336,google,41.90950069200005,-87.62760542999996,census,NA,NA,google,41.91124532300006,-87.62766170799995,census
43,Alley Speed Hump Menu,N STONE ST & N ASTOR ST & E GOETHE ST & E SCOTT ST,2007,1500,34427,N STONE ST & E GOETHE ST,N ASTOR ST & E GOETHE ST,N STONE ST & E SCOTT ST,N ASTOR ST & E SCOTT ST,41.90585465400005,-87.62581255999999,census,41.905830535000064,-87.62731197799997,census,41.904905960000065,-87.62584069899998,census,41.904885861000025,-87.62707882399997,census
43,Concrete Alley Menu,N LAKE SHORE DR & N ASTOR ST & W NORTH AVE & W SCHILLER ST,2013,453000,34827,N LAKE SHORE DR & W NORTH AVE,N ASTOR ST & W NORTH AVE,N LAKE SHORE DR & W SCHILLER ST,N ASTOR ST & W SCHILLER ST,41.9361968,-87.636788,google,41.91124532300006,-87.62766170799995,census,41.9078596,-87.6257852,google,41.90782037900004,-87.62755317099999,census
38,Alley Resurface Menu,W CULLOM AV & W MONTROSE AV & N MCVICKER AV & N AUSTIN AV,2008,28223,30723,N MCVICKER AV & W CULLOM AV,N AUSTIN AV & W CULLOM AV,N MCVICKER AV & W MONTROSE AV,N AUSTIN AV & W MONTROSE AV,41.95851115800008,-87.77817834999996,census,41.9585235,-87.7769589,google,41.9603471,-87.7782362,google,41.9603558,-87.7770154,google
30,Concrete Alley Menu,N MASON AV & N AUSTIN AV & W DIVERSEY AV & W SCHUBERT AV,2007,57000,23951,N MASON AV & W DIVERSEY AV,N AUSTIN AV & W DIVERSEY AV,N MASON AV & W SCHUBERT AV,N AUSTIN AV & W SCHUBERT AV,41.9311639,-87.7747434,google,41.931141,-87.7759564,google,41.9293278,-87.7746921,google,41.92931069700006,-87.77589907399994,census
30,Alley Speed Hump Menu,N MASON AVE & N AUSTIN AVE & W BELMONT AVE & W BARRY AVE,2011,2200,24209,N MASON AVE & W BELMONT AVE,N AUSTIN AVE & W BELMONT AVE,N MASON AVE & W BARRY AVE,N AUSTIN AVE & W BARRY AVE,41.9384598,-87.7749859,google,41.938451920000034,-87.77621262499997,census,41.93663895100008,-87.77493430099997,census,41.9366162,-87.7761546,google
30,Concrete Alley Menu,N MCVICKER AVE & W SCHUBERT AVE & W DIVERSEY AVE & N AUSTIN AVE,2020,11850.33,42194,N MCVICKER AVE & W SCHUBERT AVE,N AUSTIN AVE & W SCHUBERT AVE,N MCVICKER AVE & W DIVERSEY AVE,N AUSTIN AVE & W DIVERSEY AVE,41.92929461700004,-87.77711709999994,census,41.92931069700006,-87.77589907399994,census,41.931123666000076,-87.77717739799994,census,41.93113974500005,-87.77596339199994,census
29,Alley Resurface Menu,N MASON AVE & N AUSTIN AVE & W THOMAS ST & W DIVISION ST,2011,28945,23312,N MASON AVE & W THOMAS ST,N AUSTIN AVE & W THOMAS ST,N MASON AVE & W DIVISION ST,N AUSTIN AVE & W DIVISION ST,41.90019465200004,-87.77409012499999,census,41.9001717,-87.7752952,google,41.9020228,-87.7741433,google,41.9020084,-87.7753517,google
45,Alley Speed Hump Menu,N MASON AVE & W HIGGINS AVE & N AUSTIN AVE & W STRONG ST,2014,3500,36396,N MASON AVE & W HIGGINS AVE,N AUSTIN AVE & W HIGGINS AVE,N MASON AVE & W STRONG ST,N AUSTIN AVE & W STRONG ST,41.97285009600006,-87.77702062299994,census,41.97317570700005,-87.77823060899999,census,41.97029746800007,-87.77707288099998,census,41.97030550800008,-87.77828688699998,census
30,Alley Resurfacing Menu,W HENDERSON ST & N MARMORA AVE & N AUSTIN AVE & WSCHOOL ST,2022,12142.38,42251,N MARMORA AVE & W HENDERSON ST,N AUSTIN AVE & W HENDERSON ST,N MARMORA AVE & WSCHOOL ST,N AUSTIN AVE & WSCHOOL ST,41.94122564300005,-87.77388510999998,census,41.94119348400005,-87.77631714199998,census,41.9402955,-87.7738443,google,41.9402684,-87.7763036,google
29,Alley Resurfacing Menu,W WEST END AVE & N MASON AVE & W WASHINGTON BLVD & N AUSTIN BLVD,2017,20555.32,23502,N MASON AVE & W WEST END AVE,N AUSTIN BLVD & W WEST END AVE,N MASON AVE & W WASHINGTON BLVD,N AUSTIN BLVD & W WASHINGTON BLVD,41.88415128200006,-87.77335448499997,census,41.88413520300003,-87.77478154499994,census,41.88212525900008,-87.77328614699996,census,41.8820917,-87.7747152,google
30,Alley Speed Hump Menu,N MILWAUKEE AV & W WELLINGTON AV & N AVERS AV & N HAMLIN AV,2006,500,23842,N MILWAUKEE AV & W WELLINGTON AV,N AVERS AV & W WELLINGTON AV,N HAMLIN AV & W WELLINGTON AV,N AVERS AV & N MILWAUKEE AV,41.9353895,-87.7326228,google,41.9354634,-87.723393,google,41.93548524400006,-87.72218131899996,census,41.937450968000064,-87.72114016799998,census
27,Alley Resurface Menu,N HAMLIN AV & N AVERS AV & W IOWA ST & W AUGUSTA BV,2005,18119,21581,N HAMLIN AV & W IOWA ST,N AVERS AV & W IOWA ST,N HAMLIN AV & W AUGUSTA BV,N AVERS AV & W AUGUSTA BV,41.8972381,-87.7212604,google,41.89722797600007,-87.72247075099995,census,41.89906506400007,-87.72130900399998,census,41.89905300400005,-87.72252702999998,census
27,Alley Resurface Menu,W HURON ST & W CHICAGO AV & N HAMLIN AV & N AVERS AV,2005,28722,21580,N HAMLIN AV & W HURON ST,N AVERS AV & W HURON ST,N HAMLIN AV & W CHICAGO AV,N AVERS AV & W CHICAGO AV,41.89358193800007,-87.72113212899995,census,41.8935614,-87.7223463,google,41.8954106,-87.7211863,google,41.8953937,-87.7224051,google
27,Alley Resurface Menu,N SPRINGFIELD AV & N AVERS AV & W THOMAS ST & W DIVISION ST,2007,24904,21710,N SPRINGFIELD AV & W THOMAS ST,N AVERS AV & W THOMAS ST,N SPRINGFIELD AV & W DIVISION ST,N AVERS AV & W DIVISION ST,41.9008693,-87.7238049,google,41.9008824,-87.7225817,google,41.902702,-87.723866,google,41.9027065,-87.7226495,google
30,Alley Speed Hump Menu,N HAMLIN AV & N AVERS AV & W WELLINGTON AV & W GEORGE ST,2009,525,24088,N HAMLIN AV & W WELLINGTON AV,N AVERS AV & W WELLINGTON AV,N HAMLIN AV & W GEORGE ST,N AVERS AV & W GEORGE ST,41.9354699,-87.7221752,google,41.9354634,-87.723393,google,41.9336849,-87.7221174,google,41.9336621,-87.7233496,google
39,Alley Speed Hump Menu,N HAMLIN AV & N AVERS AV & W LAWRENCE AV & W GIDDINGS ST,2005,3500,31312,N HAMLIN AV & W LAWRENCE AV,N AVERS AV & W LAWRENCE AV,N HAMLIN AV & W GIDDINGS ST,N AVERS AV & W GIDDINGS ST,41.9683152,-87.7231244,google,41.968283504000055,-87.72438421799995,census,41.96738305000008,-87.72311795299998,census,41.9673722,-87.7230955,google
27,Alley Resurface Menu,N SPRINGFIELD AV & N AVERS AV & W DIVISION ST & W GRAND AV,2008,37879,21775,N SPRINGFIELD AV & W DIVISION ST,N AVERS AV & W DIVISION ST,N SPRINGFIELD AV & W GRAND AV,N AVERS AV & W GRAND AV,41.902702,-87.723866,google,41.9027065,-87.7226495,google,41.9051936,-87.723943,google,41.9046861,-87.7227074,google
27,Alley Speed Hump Menu,W FULTON ST & W LAKE ST & N HAMLIN AV & N AVERS AV,2007,1500,21719,N HAMLIN AV & W FULTON ST,N AVERS AV & W FULTON ST,N HAMLIN AV & W LAKE ST,N AVERS AV & W LAKE ST,41.8868221,-87.7209379,google,41.886804408000046,-87.72252702999998,census,41.8851461,-87.7209178,google,41.8853131,-87.722477,google
30,Alley Resurface Menu(1),N MILWAUKEE AVE & N AVERS AVE & N HAMLIN AVE & W WELLINGTON AVE,2011,9374,24208,N MILWAUKEE AVE & W WELLINGTON AVE,N AVERS AVE & W WELLINGTON AVE,N HAMLIN AVE & W WELLINGTON AVE,N AVERS AVE & N MILWAUKEE AVE,41.9353895,-87.7326228,google,41.9354634,-87.723393,google,41.93548524400006,-87.72218131899996,census,41.937450968000064,-87.72114016799998,census
35,Alley Resurfacing Menu,N HAMLIN AVE & W FULLERTON AVE & W BELDEN AVE & N AVERS AVE,2021,44906.33,28864,N HAMLIN AVE & W FULLERTON AVE,N AVERS AVE & W FULLERTON AVE,N HAMLIN AVE & W BELDEN AVE,N AVERS AVE & W BELDEN AVE,41.9246058,-87.7218664,google,41.9245828,-87.7230784,google,41.9227294,-87.7218001,google,41.92270200200005,-87.72304961499998,census
45,Alley Speed Hump Menu,W IRVING PARK RD & N SPRINGFIELD AVE & W BELLE PLAINE AVE & N AVERS AVE,2014,700,36397,N SPRINGFIELD AVE & W IRVING PARK RD,N AVERS AVE & W IRVING PARK RD,N SPRINGFIELD AVE & W BELLE PLAINE AVE,N AVERS AVE & W BELLE PLAINE AVE,41.95369533300004,-87.72513995599996,census,41.953711413000065,-87.72393800999998,census,41.9555036,-87.7251955,google,41.95552840200003,-87.72399428799997,census
26,Alley Resurfacing Menu,N HAMLIN AVE & W DIVISION ST & W GRAND AVE & N AVERS AVE,2022,16756.89,41841,N HAMLIN AVE & W DIVISION ST,N AVERS AVE & W DIVISION ST,N HAMLIN AVE & W GRAND AVE,N AVERS AVE & W GRAND AVE,41.9027106,-87.7214299,google,41.9027065,-87.7226495,google,41.9041974,-87.7214737,google,41.9046861,-87.7227074,google
26,Alley Speed Hump Menu,N SPRINGFIELD AVE & W LE MOYNE ST & N AVERS AVE & W HIRSCH ST,2015,2100,21340,N SPRINGFIELD AVE & W LE MOYNE ST,N AVERS AVE & W LE MOYNE ST,N SPRINGFIELD AVE & W HIRSCH ST,N AVERS AVE & W HIRSCH ST,41.90809775100007,-87.72403448699998,census,41.90811383100004,-87.72282048099999,census,41.9062917,-87.72398,google,41.90631292100005,-87.72276018299993,census
26,Concrete Alley Menu,N HAMLIN AVE & N AVERS AVE & W NORTH AVE & W LE MOYNE ST,2013,295000,21261,N HAMLIN AVE & W NORTH AVE,N AVERS AVE & W NORTH AVE,N HAMLIN AVE & W LE MOYNE ST,N AVERS AVE & W LE MOYNE ST,41.9099926,-87.7214269,google,41.9099806,-87.722662,google,41.908125890000065,-87.72160245599997,census,41.90811383100004,-87.72282048099999,census
26,Alley Resurfacing Menu,N SPRINGFIELD AVE & W NORTH AVE & W LE MOYNE ST & N AVERS AVE,2022,25872.175,41872,N SPRINGFIELD AVE & W NORTH AVE,N AVERS AVE & W NORTH AVE,N SPRINGFIELD AVE & W LE MOYNE ST,N AVERS AVE & W LE MOYNE ST,41.90991474000003,-87.72410282499999,census,41.9099806,-87.722662,google,41.9080927,-87.7240264,google,41.90811383100004,-87.72282048099999,census
26,Alley Resurface Menu,S HAMLIN AVE & N AVERS AVE & W DICKENS AVE & W PALMER,2011,6798,21175,S HAMLIN AVE & W DICKENS AVE,N AVERS AVE & W DICKENS AVE,S HAMLIN AVE & W PALMER,N AVERS AVE & W PALMER,41.9189622,-87.7290517,google,41.91903988400003,-87.72294107799996,census,41.9208888,-87.7217525,google,41.92087295300007,-87.72299735599995,census
30,Concrete Alley Menu,N HAMLIN AVE & W SCHOOL ST & N AVERS AVE & W ROSCOE ST,2015,125000,24397,N HAMLIN AVE & W SCHOOL ST,N AVERS AVE & W SCHOOL ST,N HAMLIN AVE & W ROSCOE ST,N AVERS AVE & W ROSCOE ST,41.9409678,-87.7223409,google,41.94096435000006,-87.72357219999998,census,41.9427995,-87.7223945,google,41.94278535900003,-87.72362445899995,census
30,Alley Resurfacing Menu,W SCHOOL ST & W ROSCOE ST & N SPRINGFIELD AVE & N AVERS AVE,2013,26206,24296,N SPRINGFIELD AVE & W SCHOOL ST,N AVERS AVE & W SCHOOL ST,N SPRINGFIELD AVE & W ROSCOE ST,N AVERS AVE & W ROSCOE ST,41.940948270000035,-87.72479022599998,census,41.94096435000006,-87.72357219999998,census,41.9427658,-87.7248346,google,41.94278535900003,-87.72362445899995,census
46,Alley Resurface Menu(1),N DOVER ST & N BEACON ST & W WILSON AVE & W LELAND AVE,2011,28717,36934,N DOVER ST & W WILSON AVE,N BEACON ST & W WILSON AVE,N DOVER ST & W LELAND AVE,N BEACON ST & W LELAND AVE,41.9652803,-87.6654271,google,41.96531280800008,-87.66384069399999,census,41.9670911,-87.6658081,google,41.96712979700004,-87.66411404699994,census
46,Alley Resurface Menu,"N MALDEN ST & N BEACON ST & W MONTROSE DR & W SUNNYSIDE AV5 ,227",2009,25227,36869,N MALDEN ST & W MONTROSE DR,N BEACON ST & W MONTROSE DR,"N MALDEN ST & W SUNNYSIDE AV5 ,227","N BEACON ST & W SUNNYSIDE AV5 ,227",41.961682849000056,-87.66232921699998,census,41.96166677000008,-87.66373215699997,census,41.9653216,-87.6624131,google,41.9634764,-87.6637517,google
46,Alley Speed Hump Menu,W MONTROSE AVE & N MALDEN ST & N BEACON ST & W SUNNYSIDE AVE,2021,350,43313,N MALDEN ST & W MONTROSE AVE,N BEACON ST & W MONTROSE AVE,N MALDEN ST & W SUNNYSIDE AVE,N BEACON ST & W SUNNYSIDE AVE,41.961682849000056,-87.66232921699998,census,41.96166677000008,-87.66373215699997,census,41.9628726,-87.7186976,google,41.96348777900005,-87.66375225699994,census
46,Alley Resurface Menu,N MALDEN ST & N BEACON ST & W SUNNYSIDE AVE & W WILSON AVE,2011,33338,36933,N MALDEN ST & W SUNNYSIDE AVE,N BEACON ST & W SUNNYSIDE AVE,N MALDEN ST & W WILSON AVE,N BEACON ST & W WILSON AVE,41.9628726,-87.7186976,google,41.96348777900005,-87.66375225699994,census,41.96533290700006,-87.66242971399998,census,41.96531280800008,-87.66384069399999,census
1,Alley Speed Hump Menu,N LEAVITT ST & N BELL AV & W HIRSCH ST & W POTOMAC AV,2007,1000,186,N LEAVITT ST & W HIRSCH ST,N BELL AV & W HIRSCH ST,N LEAVITT ST & W POTOMAC AV,N BELL AV & W POTOMAC AV,41.906737,-87.682242,google,41.90672696900003,-87.68346578399996,census,41.90492204000003,-87.68219147999997,census,41.904905960000065,-87.68341352599998,census
40,Concrete Alley Menu,N LEAVITT ST & W LAWRENCE AVE & W AINSLIE ST & N BELL AVE,2022,105741.51,32703,N LEAVITT ST & W LAWRENCE AVE,N BELL AVE & W LAWRENCE AVE,N LEAVITT ST & W AINSLIE ST,N BELL AVE & W AINSLIE ST,41.968685493000066,-87.68404062799999,census,41.9686579,-87.6852543,google,41.970506502000035,-87.68410092599999,census,41.9704722,-87.6853155,google
47,Alley Resurface Menu,N OAKLEY AVE & N BELL AVE & W LAWRENCE AVE & W AINSLIE ST,2011,54101,37618,N OAKLEY AVE & W LAWRENCE AVE,N BELL AVE & W LAWRENCE AVE,N OAKLEY AVE & W AINSLIE ST,N BELL AVE & W AINSLIE ST,41.9686411,-87.6864673,google,41.9686579,-87.6852543,google,41.97046630300008,-87.68653295799999,census,41.9704722,-87.6853155,google
47,Alley Speed Hump Menu,W IRVING PARK RD & W BYRON ST & N OAKLEY AVE & N BELL AVE,2012,1400,37667,N OAKLEY AVE & W IRVING PARK RD,N BELL AVE & W IRVING PARK RD,N OAKLEY AVE & W BYRON ST,N BELL AVE & W BYRON ST,41.95406114300005,-87.68603851199998,census,41.9540277,-87.6848115,google,41.95223611400007,-87.68598223399994,census,41.9522418,-87.6847607,google
47,Alley Resurfacing Menu,W CULLOM AVE & N LEAVITT ST & W MONTROSE AVE & N BELL AVE,2018,26767.75,38067,N LEAVITT ST & W CULLOM AVE,N BELL AVE & W CULLOM AVE,N LEAVITT ST & W MONTROSE AVE,N BELL AVE & W MONTROSE AVE,41.95956034900007,-87.68377129599997,census,41.95954426900005,-87.68498530199997,census,41.961385378000045,-87.68382757399996,census,41.96136527800007,-87.68504157999996,census
1,Alley Speed Hump Menu,N OAKLEY BLVD & W HIRSCH ST & N BELL AVE & W POTOMAC AVE,2014,301,534,N OAKLEY BLVD & W HIRSCH ST,N BELL AVE & W HIRSCH ST,N OAKLEY BLVD & W POTOMAC AVE,N BELL AVE & W POTOMAC AVE,41.90670687000005,-87.68468380999997,census,41.90672696900003,-87.68346578399996,census,41.904881841000076,-87.68463155199998,census,41.904905960000065,-87.68341352599998,census
32,Alley Resurfacing Menu,W ROSCOE ST & N LEAVITT ST & W SCHOOL ST & N BELL AVE,2018,46763.66,26315,N LEAVITT ST & W ROSCOE ST,N BELL AVE & W ROSCOE ST,N LEAVITT ST & W SCHOOL ST,N BELL AVE & W SCHOOL ST,41.943159208000054,-87.68330096899996,census,41.943138,-87.684517,google,41.94133418000007,-87.68324870999999,census,41.9413202,-87.6844614,google
47,Alley Resurfacing Menu,W ADDISON ST & N LEAVITT ST & W WAVELAND AVE & N BELL AVE,2018,27199.79,38065,N LEAVITT ST & W ADDISON ST,N BELL AVE & W ADDISON ST,N LEAVITT ST & W WAVELAND AVE,N BELL AVE & W WAVELAND AVE,41.94680122600005,-87.68340548599997,census,41.94678514700007,-87.68461547199996,census,41.94862223500007,-87.68345774399995,census,41.9485969,-87.6846658,google
33,Alley Resurface Menu,N ST LOUIS AV & N BERNARD ST & W BELLE PLAINE AV & W BERTEAU AV,2007,22248,26605,N ST LOUIS AV & W BELLE PLAINE AV,N BERNARD ST & W BELLE PLAINE AV,N ST LOUIS AV & W BERTEAU AV,N BERNARD ST & W BERTEAU AV,41.955644979000056,-87.71541584899995,census,41.95566105800003,-87.71419380299994,census,41.9574661,-87.7154662,google,41.95747804700005,-87.71424606199997,census
33,Alley Resurface Menu,N ST LOUIS AV & N BERNARD ST & W CULLOM AV & W BERTEAU AV,2009,11800,26700,N ST LOUIS AV & W CULLOM AV,N BERNARD ST & W CULLOM AV,N ST LOUIS AV & W BERTEAU AV,N BERNARD ST & W BERTEAU AV,41.9592894,-87.7155212,google,41.95929905600008,-87.71430635999997,census,41.9574661,-87.7154662,google,41.95747804700005,-87.71424606199997,census
35,Alley Resurfacing Menu,N KIMBALL AVE & W BELLE PLAINE AVE & N BERNARD ST & W BERTEAU AVE,2017,26824.17,28675,N KIMBALL AVE & W BELLE PLAINE AVE,N BERNARD ST & W BELLE PLAINE AVE,N KIMBALL AVE & W BERTEAU AVE,N BERNARD ST & W BERTEAU AVE,41.95569723700004,-87.71296773699999,census,41.95566105800003,-87.71419380299994,census,41.95749814700008,-87.71302401599996,census,41.95747804700005,-87.71424606199997,census
35,Alley Resurfacing Menu,N KIMBALL AVE & W BELLE PLAINE AVE & N BERNARD ST & W BERTEAU AVE,2018,9178.3,28706,N KIMBALL AVE & W BELLE PLAINE AVE,N BERNARD ST & W BELLE PLAINE AVE,N KIMBALL AVE & W BERTEAU AVE,N BERNARD ST & W BERTEAU AVE,41.95569723700004,-87.71296773699999,census,41.95566105800003,-87.71419380299994,census,41.95749814700008,-87.71302401599996,census,41.95747804700005,-87.71424606199997,census
35,Concrete Alley Menu,N ST LOUIS AVE & W CULLOM AVE & W BERTEAU AVE & N BERNARD ST,2019,3841.765,42573,N ST LOUIS AVE & W CULLOM AVE,N BERNARD ST & W CULLOM AVE,N ST LOUIS AVE & W BERTEAU AVE,N BERNARD ST & W BERTEAU AVE,41.9592894,-87.7155212,google,41.95929905600008,-87.71430635999997,census,41.957461968000075,-87.71547212699994,census,41.95747804700005,-87.71424606199997,census
39,Alley Resurfacing Menu,N ST LOUIS AVE & N BERNARD ST & W FOSTER AVE & W CARMEN AVE,2012,50254,31625,N ST LOUIS AVE & W FOSTER AVE,N BERNARD ST & W FOSTER AVE,N ST LOUIS AVE & W CARMEN AVE,N BERNARD ST & W CARMEN AVE,41.9756736,-87.7160059,google,41.975680097000065,-87.71477266699998,census,41.97272950000007,-87.71593039399994,census,41.97256066500006,-87.71470030899997,census
35,Alley Resurfacing Menu,N ST LOUIS AVE & W MONTROSE AVE & W CULLOM AVE & N BERNARD ST,2020,45606.33,28823,N ST LOUIS AVE & W MONTROSE AVE,N BERNARD ST & W MONTROSE AVE,N ST LOUIS AVE & W CULLOM AVE,N BERNARD ST & W CULLOM AVE,41.96109996600006,-87.71558468399996,census,41.96111604500004,-87.71436263799995,census,41.9592894,-87.7155212,google,41.95929905600008,-87.71430635999997,census
35,Alley Resurfacing Menu (1-1),N ST LOUIS AVE & W ALTGELD ST & N BERNARD ST & W FULLERTON AVE,2018,39251.15,28702,N ST LOUIS AVE & W ALTGELD ST,N BERNARD ST & W ALTGELD ST,N ST LOUIS AVE & W FULLERTON AVE,N BERNARD ST & W FULLERTON AVE,41.92644451700005,-87.71459579199995,census,41.92646461600003,-87.71337374599995,census,41.9245869,-87.714554,google,41.924651647000076,-87.71332550699998,census
35,Alley Resurfacing Menu (1-1),N ST LOUIS AVE & W ALTGELD ST & N BERNARD ST & W FULLERTON AVE,2018,22995.76,28703,N ST LOUIS AVE & W ALTGELD ST,N BERNARD ST & W ALTGELD ST,N ST LOUIS AVE & W FULLERTON AVE,N BERNARD ST & W FULLERTON AVE,41.92644451700005,-87.71459579199995,census,41.92646461600003,-87.71337374599995,census,41.9245869,-87.714554,google,41.924651647000076,-87.71332550699998,census
35,Concrete Alley Menu,W ADDISON ST & N KIMBALL AVE & N BERNARD ST & W WAVELAND AVE,2021,3314.27,28872,N KIMBALL AVE & W ADDISON ST,N BERNARD ST & W ADDISON ST,N KIMBALL AVE & W WAVELAND AVE,N BERNARD ST & W WAVELAND AVE,41.94656807300004,-87.71271046499999,census,41.94655601300008,-87.71394054999996,census,41.94839310200007,-87.71276674299997,census,41.948377022000045,-87.71399280899999,census
33,Alley Resurfacing Menu,N KIMBALL AVE & W SUNNYSIDE AVE & N BERNARD ST & W WILSON AVE,2016,40177.54,26930,N KIMBALL AVE & W SUNNYSIDE AVE,N BERNARD ST & W SUNNYSIDE AVE,N KIMBALL AVE & W WILSON AVE,N BERNARD ST & W WILSON AVE,41.96295715400004,-87.71319687099998,census,41.96294107400007,-87.71441891699999,census,41.96470982500006,-87.71324912999995,census,41.96475002300008,-87.71447117499997,census
43,Alley Resurfacing Menu,W ARMITAGE AVE & N SHEFFIELD AVE & N BISSELL ST & W DICKENS AVE,2020,20178.21,43062,N SHEFFIELD AVE & W ARMITAGE AVE,N BISSELL ST & W ARMITAGE AVE,N SHEFFIELD AVE & W DICKENS AVE,N BISSELL ST & W DICKENS AVE,41.91810727100005,-87.65336486799998,census,41.91812335000003,-87.65215086199998,census,41.91992426000007,-87.65342516599998,census,41.919944359000056,-87.65220713999997,census
43,Alley Resurfacing Menu,N FREMONT ST & W BELDEN AVE & W WEBSTER AVE & N BISSELL ST,2022,2304.395,43088,N FREMONT ST & W BELDEN AVE,N BISSELL ST & W BELDEN AVE,N FREMONT ST & W WEBSTER AVE,N BISSELL ST & W WEBSTER AVE,41.92359843700007,-87.65112177099996,census,41.92358637700005,-87.65233577699996,census,41.92178144800005,-87.65106147199998,census,41.921761348000075,-87.65227547799998,census
43,Alley Resurfacing Menu,W DICKENS AVE & N SHEFFIELD AVE & W WEBSTER AVE & N BISSELL ST,2019,21280.35,43045,N SHEFFIELD AVE & W DICKENS AVE,N BISSELL ST & W DICKENS AVE,N SHEFFIELD AVE & W WEBSTER AVE,N BISSELL ST & W WEBSTER AVE,41.91992426000007,-87.65342516599998,census,41.919944359000056,-87.65220713999997,census,41.921741249000036,-87.65348546399997,census,41.921761348000075,-87.65227547799998,census
43,Alley Resurfacing Menu,W WILLOW ST & N FREMONT ST & N BISSELL ST & W WISCONSIN ST,2020,2821.405,43059,N FREMONT ST & W WILLOW ST,N BISSELL ST & W WILLOW ST,N FREMONT ST & W WISCONSIN ST,N BISSELL ST & W WISCONSIN ST,41.91379393100004,-87.65078409999995,census,41.91377383200006,-87.65197398699996,census,41.916000850000046,-87.65086047799997,census,41.915980750000074,-87.65207046399996,census
1,Alley Resurface Menu,W DIVISION ST & N GREENVIEW AV & W BLACKHAWK ST & N BOSWORTH AV,2005,5361,5,N GREENVIEW AV & W DIVISION ST,N BOSWORTH AV & W DIVISION ST,N GREENVIEW AV & W BLACKHAWK ST,N BOSWORTH AV & W BLACKHAWK ST,41.90337438300003,-87.66504263999997,census,41.9033584,-87.6661659,google,41.90702846100004,-87.66515117699998,census,41.907008362000056,-87.66632096499995,census
32,Alley Resurface Menu,N ASHLAND AV & N BOSWORTH AV & W WRIGHTWOOD AV & W DIVERSEY AV,2009,62689,25913,N ASHLAND AV & W WRIGHTWOOD AV,N BOSWORTH AV & W WRIGHTWOOD AV,N ASHLAND AV & W DIVERSEY AV,N BOSWORTH AV & W DIVERSEY AV,41.9287733,-87.6683456,google,41.928797,-87.6670621,google,41.9324012,-87.6684698,google,41.932422089000056,-87.66718925999999,census
1,Alley Resurface Menu,N ASHLAND AV & W NORTH AV & W LE MOYNE ST & N BOSWORTH AV,2006,16158,101,N ASHLAND AV & W NORTH AV,N BOSWORTH AV & W NORTH AV,N ASHLAND AV & W LE MOYNE ST,N BOSWORTH AV & W LE MOYNE ST,41.91063028000008,-87.66769174599995,census,41.91065037900006,-87.66649783999998,census,41.90882133100007,-87.66763948799996,census,41.90883741000005,-87.66642146199996,census
49,6 Alley Resurfacing Menu  A,W NORTH SHORE AVE & N ASHLAND VE & N BOSWORTH AVE & W ALBION AVE,2019,15620.05,43540,N ASHLAND VE & W NORTH SHORE AVE,N BOSWORTH AVE & W NORTH SHORE AVE,N ASHLAND VE & W ALBION AVE,N BOSWORTH AVE & W ALBION AVE,42.0024981,-87.811619,google,42.003570076000074,-87.66933185999994,census,42.0016006,-87.6818278,google,42.00174504700004,-87.66927558199995,census
44,Alley Resurfacing Menu,N GREENVIEW AVE & W ROSCOE ST & N BOSWORTH AVE & W CORNELIA AVE,2015,39886,35701,N GREENVIEW AVE & W ROSCOE ST,N BOSWORTH AVE & W ROSCOE ST,N GREENVIEW AVE & W CORNELIA AVE,N BOSWORTH AVE & W CORNELIA AVE,41.94338432200004,-87.66634106399994,census,41.94336422300006,-87.66755104999999,census,41.94520533100007,-87.66638930299996,census,41.94518523200003,-87.66759928899995,census
44,Alley Resurfacing Menu,N GREENVIEW AVE & W WAVELAND AVE & N BOSWORTH AVE & W GRACE ST,2017,17632.375,43117,N GREENVIEW AVE & W WAVELAND AVE,N BOSWORTH AVE & W WAVELAND AVE,N GREENVIEW AVE & W GRACE ST,N BOSWORTH AVE & W GRACE ST,41.94885538900007,-87.66648175999995,census,41.948835289000044,-87.66769174599995,census,41.9506656,-87.6665258,google,41.950660318000075,-87.66773596499996,census
32,Alley Resurfacing Menu,W DIVERSEY PKWY & N GREENVIEW AVE & N BOSWORTH AVE & W WRIGHTWOOD AVE,2022,61198.27,26482,N GREENVIEW AVE & W DIVERSEY PKWY,N BOSWORTH AVE & W DIVERSEY PKWY,N GREENVIEW AVE & W WRIGHTWOOD AVE,N BOSWORTH AVE & W WRIGHTWOOD AVE,41.93244218900003,-87.66598329399994,census,41.932422089000056,-87.66718925999999,census,41.92881625000007,-87.66585867799995,census,41.928797,-87.6670621,google
48,Alley Speed Hump Menu,N MAGNOLIA AV & N BROADWAY & W ARGYLE ST & W AINSLIE ST,2007,500,38393,N MAGNOLIA AV & W ARGYLE ST,N BROADWAY & W ARGYLE ST,N MAGNOLIA AV & W AINSLIE ST,N BROADWAY & W AINSLIE ST,41.9726478,-87.6611458,google,41.973248065000064,-87.65978060799995,census,41.9714464,-87.6611127,google,41.97145921500004,-87.65973236899998,census
44,Concrete Alley Menu,N ORCHARD ST & N BROADWAY & W BRIAR PL & W BARRY AV,2009,95000,35343,N ORCHARD ST & W BRIAR PL,N BROADWAY & W BRIAR PL,N ORCHARD ST & W BARRY AV,N BROADWAY & W BARRY AV,41.939119222000045,-87.64680039199999,census,41.9386772,-87.6443673,google,41.9254978,-87.6463291,google,41.93790521600005,-87.64432816099998,census
44,Alley Resurface Menu,N CAMBRIDGE AV & N BROADWAY & W BRIAR PL & W BELMONT AV,2007,2846,35296,N CAMBRIDGE AV & W BRIAR PL,N BROADWAY & W BRIAR PL,N CAMBRIDGE AV & W BELMONT AV,N BROADWAY & W BELMONT AV,41.93870919300008,-87.64314229399997,census,41.9386772,-87.6443673,google,41.94006791500004,-87.64319053299994,census,41.94004781600006,-87.64439649899998,census
48,Miscellaneous Other,W GRANVILLE AVE & N CLARK ST & W ELMDALE AVE & N BROADWAY,2014,13496,38661,N CLARK ST & W GRANVILLE AVE,N BROADWAY & W GRANVILLE AVE,N CLARK ST & W ELMDALE AVE,N BROADWAY & W ELMDALE AVE,41.99444091100003,-87.67014789699994,census,41.99455346800005,-87.66040368999995,census,41.9908098,-87.6701337,google,41.99091949000007,-87.66029113399998,census
44,Alley Resurfacing Menu,N CLARK ST & W DIVERSEY PKWY & N BROADWAY & W SURF ST,2021,4736.0575,43217,N CLARK ST & W DIVERSEY PKWY,N BROADWAY & W DIVERSEY PKWY,N CLARK ST & W SURF ST,N BROADWAY & W SURF ST,41.93280397900003,-87.64488290499997,census,41.93280397900003,-87.64488290499997,census,41.9348087,-87.6465186,google,41.9348672,-87.6442219,google
46,Alley Resurfacing Menu,N HALSTED ST & W ADDISON ST & N BROADWAY & W WAVELAND AVE,2014,26946,37011,N HALSTED ST & W ADDISON ST,N BROADWAY & W ADDISON ST,N HALSTED ST & W WAVELAND AVE,N BROADWAY & W WAVELAND AVE,41.9473251,-87.6494732,google,41.947355971000036,-87.64727473799996,census,41.9491137,-87.6495417,google,41.949172960000055,-87.64837216799998,census
46,Concrete Alley Menu,N WINTHROP AV & W LELAND AV & W WILSON AV & N BROADWAY,2007,68000,36823,N WINTHROP AV & W LELAND AV,N BROADWAY & W LELAND AV,N WINTHROP AV & W WILSON AV,N BROADWAY & W WILSON AV,41.967230294000046,-87.65753751099999,census,41.96721421400008,-87.65863091999995,census,41.9841718,-87.6580239,google,41.9653973,-87.6575019,google
46,Alley Resurface Menu,W CARMEN AV & W WINNEMAC AV & N GLENWOOD AV & N BROADWAY,2009,52265,36868,N GLENWOOD AV & W CARMEN AV,N BROADWAY & W CARMEN AV,N GLENWOOD AV & W WINNEMAC AV,N BROADWAY & W WINNEMAC AV,41.9745372,-87.6647001,google,41.9746128,-87.6598275,google,41.9734083,-87.6646708,google,41.97364603400007,-87.65979266799997,census
44,Alley Resurface Menu(1),W DIVERSEY AVE & W OAKDALE AVE & N HALSTED ST & N BURLING ST,2011,52753,35433,N HALSTED ST & W DIVERSEY AVE,N BURLING ST & W DIVERSEY AVE,N HALSTED ST & W OAKDALE AVE,N BURLING ST & W OAKDALE AVE,41.9327188,-87.6490157,google,41.9327352,-87.6476663,google,41.9354421,-87.6491154,google,41.93559378000003,-87.64813499399997,census
45,Concrete Alley Menu,N LEOTI AVE & N CALDWELL AVE & N NAVAJO AVE & N LEMAI AVE,2012,171720,36303,N LEOTI AVE & N CALDWELL AVE,N NAVAJO AVE & N CALDWELL AVE,N LEMAI AVE & N CALDWELL AVE,N CALDWELL AVE & N LEOTI AVE,42.0002498,-87.7683558,google,41.99434443400003,-87.76036220899994,census,41.9938582,-87.7593295,google,42.0002498,-87.7683558,google
50,Alley Speed Hump Menu,N FAIRFIELD AV & N CALIFORNIA AV & W NORTH SHORE AV & W ALBION AV,2008,1050,39823,N FAIRFIELD AV & W NORTH SHORE AV,N CALIFORNIA AV & W NORTH SHORE AV,N FAIRFIELD AV & W ALBION AV,N CALIFORNIA AV & W ALBION AV,42.003039450000074,-87.69856448099995,census,42.0030168,-87.6997795,google,42.0012045,-87.6985264,google,42.0011911,-87.6997336,google
40,Concrete Alley Menu,N MOZART ST & N CALIFORNIA AV & W AINSLIE ST & W ARGYLE ST,2010,115000,32265,N MOZART ST & W AINSLIE ST,N CALIFORNIA AV & W AINSLIE ST,N MOZART ST & W ARGYLE ST,N CALIFORNIA AV & W ARGYLE ST,41.9707183,-87.6999722,google,41.9707201,-87.69874,google,41.97216671600006,-87.70002771999998,census,41.972168,-87.6987819,google
50,Alley Speed Hump Menu,N MOZART ST & N CALIFORNIA AV & W ALBION AV & W ARTHUR AV,2006,1000,39788,N MOZART ST & W ALBION AV,N CALIFORNIA AV & W ALBION AV,N MOZART ST & W ARTHUR AV,N CALIFORNIA AV & W ARTHUR AV,42.0011798,-87.7009562,google,42.0011911,-87.6997336,google,41.99936527300008,-87.70091209499998,census,41.9993728,-87.6996863,google
1,Alley Resurface Menu,N MOZART ST & N CALIFORNIA AV & W WABANSIA AV & W BLOOMINGDALE AV,2006,12145,102,N MOZART ST & W WABANSIA AV,N CALIFORNIA AV & W WABANSIA AV,N MOZART ST & W BLOOMINGDALE AV,N CALIFORNIA AV & W BLOOMINGDALE AV,41.9123535,-87.6980612,google,41.91235883200005,-87.69704496399999,census,41.91399894600005,-87.69812631299999,census,41.9139305,-87.6970969,google
40,Alley Resurface Menu,W BRYN MAWR AV & W GREGORY ST & N FRANCISCO AV & N CALIFORNIA AV,2008,9196,32176,N FRANCISCO AV & W BRYN MAWR AV,N CALIFORNIA AV & W BRYN MAWR AV,N FRANCISCO AV & W GREGORY ST,N CALIFORNIA AV & W GREGORY ST,41.9831056,-87.7015811,google,41.98312492900004,-87.69915540499994,census,41.9821951,-87.7015517,google,41.9822056,-87.6991257,google
26,Alley Speed Hump Menu,N FAIRFIELD AV & N CALIFORNIA AV & W AUGUSTA BV & W IOWA ST,2006,2000,20945,N FAIRFIELD AV & W AUGUSTA BV,N CALIFORNIA AV & W AUGUSTA BV,N FAIRFIELD AV & W IOWA ST,N CALIFORNIA AV & W IOWA ST,41.89929017800006,-87.69555760499998,census,41.8992729,-87.6967777,google,41.8974667,-87.6955058,google,41.8974334,-87.696748,google
50,Alley Speed Hump Menu,W NORTH SHORE AV & W PRATT AV & N MOZART ST & N CALIFORNIA AV,2007,500,39808,N MOZART ST & W NORTH SHORE AV,N CALIFORNIA AV & W NORTH SHORE AV,N MOZART ST & W PRATT AV,N CALIFORNIA AV & W PRATT AV,42.003007291000074,-87.70099651299995,census,42.0030168,-87.6997795,google,42.0048215,-87.7010226,google,42.0048404,-87.6998323,google
2,Alley Resurface Menu,W MADISON ST & W WARREN AV & N FRANCISCO AV & N CALIFORNIA AV,2006,16823,965,N FRANCISCO AV & W MADISON ST,N CALIFORNIA AV & W MADISON ST,N FRANCISCO AV & W WARREN AV,N CALIFORNIA AV & W WARREN AV,41.8810418,-87.698724,google,41.8810889,-87.6962626,google,41.8819692,-87.6987611,google,41.8820005,-87.6963121,google
33,Alley Resurfacing Menu,N MOZART ST & W IRVING PARK RD & W BELLE PLAINE AVE & N CALIFORNIA AVE,2021,28748.24,27080,N MOZART ST & W IRVING PARK RD,N CALIFORNIA AVE & W IRVING PARK RD,N MOZART ST & W BELLE PLAINE AVE,N CALIFORNIA AVE & W BELLE PLAINE AVE,41.95397270500007,-87.69946091599996,census,41.9540304,-87.6982535,google,41.95578165500007,-87.69952121399996,census,41.9557982,-87.6982968,google
33,Alley Speed Hump Menu,N ELSTON AVE & W FLETCHER ST & N CALIFORNIA AVE & W BELMONT AVE,2017,350,42447,N ELSTON AVE & W FLETCHER ST,N CALIFORNIA AVE & W FLETCHER ST,N ELSTON AVE & W BELMONT AVE,N CALIFORNIA AVE & W BELMONT AVE,41.93823082700004,-87.69662689499995,census,41.9384806,-87.6977924,google,41.93939257400007,-87.69831926799998,census,41.9393986,-87.697835799999993,google
33,Alley Resurfacing Menu,W FLETCHER ST & N FRANCISCO AVE & W BELMONT AVE & N CALIFORNIA AVE,2015,44441,26886,N FRANCISCO AVE & W FLETCHER ST,N CALIFORNIA AVE & W FLETCHER ST,N FRANCISCO AVE & W BELMONT AVE,N CALIFORNIA AVE & W BELMONT AVE,41.93846800000006,-87.70024881399996,census,41.9384806,-87.6977924,google,41.9393968,-87.7002628,google,41.9393986,-87.697835799999993,google
1,Alley Speed Hump Menu,W THOMAS ST & W CORTEZ ST & N WASHTENAW AVE & N CALIFORNIA AVE,2013,2800,486,N WASHTENAW AVE & W THOMAS ST,N CALIFORNIA AVE & W THOMAS ST,N WASHTENAW AVE & W CORTEZ ST,N CALIFORNIA AVE & W CORTEZ ST,41.901131286000066,-87.69436771899996,census,41.9010957,-87.6968528,google,41.90022279200008,-87.69434761899998,census,41.9001914,-87.6968045,google
33,Alley Resurfacing Menu,N MOZART ST & W MONTROSE AVE & W CULLOM AVE & N CALIFORNIA AVE,2021,15885.36,42496,N MOZART ST & W MONTROSE AVE,N CALIFORNIA AVE & W MONTROSE AVE,N MOZART ST & W CULLOM AVE,N CALIFORNIA AVE & W CULLOM AVE,41.96124468200003,-87.69968602999995,census,41.96125272100005,-87.69848006299998,census,41.95940357300003,-87.69962975099997,census,41.9594274,-87.6984243,google
50,Alley Speed Hump Menu,N MOZART ST & W ROSEMONT AVE & N CALIFORNIA AVE & W GRANVILLE AVE,2017,350,43572,N MOZART ST & W ROSEMONT AVE,N CALIFORNIA AVE & W ROSEMONT AVE,N MOZART ST & W GRANVILLE AVE,N CALIFORNIA AVE & W GRANVILLE AVE,41.995755415000076,-87.70078747899998,census,41.99577149400005,-87.69957347299999,census,41.99396656500005,-87.70072718099999,census,41.9939701,-87.6995137,google
50,Concrete Alley Menu,W MORSE AVE & N FRANCISCO AVE & N CALIFORNIA AVE & W PRATT BLVD,2021,65000,40160,N FRANCISCO AVE & W MORSE AVE,N CALIFORNIA AVE & W MORSE AVE,N FRANCISCO AVE & W PRATT BLVD,N CALIFORNIA AVE & W PRATT BLVD,42.006592499999996,-87.7021781,google,42.0066462,-87.6997923,google,42.004797,-87.702214,google,42.00485242000008,-87.69982672599997,census
50,Alley Resurfacing Menu,W DEVON AVE & N MOZART ST & W ROSEMONT AVE & N CALIFORNIA AVE,2019,28947.57,40117,N MOZART ST & W DEVON AVE,N CALIFORNIA AVE & W DEVON AVE,N MOZART ST & W ROSEMONT AVE,N CALIFORNIA AVE & W ROSEMONT AVE,41.99754024500004,-87.70085983699994,census,41.99756436400003,-87.69964181099994,census,41.9957434,-87.7007837,google,41.99577149400005,-87.69957347299999,census
50,Alley Resurfacing Menu,W DEVON AVE & N MOZART ST & W ROSEMONT AVE & N CALIFORNIA AVE,2021,5642.81,43592,N MOZART ST & W DEVON AVE,N CALIFORNIA AVE & W DEVON AVE,N MOZART ST & W ROSEMONT AVE,N CALIFORNIA AVE & W ROSEMONT AVE,41.99754024500004,-87.70085983699994,census,41.99756436400003,-87.69964181099994,census,41.9957434,-87.7007837,google,41.99577149400005,-87.69957347299999,census
26,Alley Speed Hump Menu,N MOZART ST & N CALIFORNIA AVE & W DIVISION ST & W THOMAS ST,2011,2100,21179,N MOZART ST & W DIVISION ST,N CALIFORNIA AVE & W DIVISION ST,N MOZART ST & W THOMAS ST,N CALIFORNIA AVE & W THOMAS ST,41.9029088,-87.6981313,google,41.902918,-87.6968699,google,41.9010909,-87.6980797,google,41.90110716700008,-87.69683592999996,census
1,Alley Resurface Menu,N WASHTENAW AVE & N CALIFORNIA AVE & W HADDON AVE & W THOMAS ST,2011,25449,377,N WASHTENAW AVE & W HADDON AVE,N CALIFORNIA AVE & W HADDON AVE,N WASHTENAW AVE & W THOMAS ST,N CALIFORNIA AVE & W THOMAS ST,41.9020069,-87.6943695,google,41.901995562000025,-87.69685200899994,census,41.901131286000066,-87.69436771899996,census,41.90110716700008,-87.69683592999996,census
27,Alley Resurface Menu,N LARRABEE ST & N CAMBRIDGE AV & W CHICAGO AV & W OAK ST,2007,42695,21707,N LARRABEE ST & W CHICAGO AV,N CAMBRIDGE AV & W CHICAGO AV,N LARRABEE ST & W OAK ST,N CAMBRIDGE AV & W OAK ST,41.896476257000074,-87.64292521999994,census,41.89649635600006,-87.64153835899998,census,41.90041574600008,-87.64309003599999,census,41.90043584600005,-87.64190014899998,census
44,Concrete Alley Menu,N BROADWAY & W BELMONT AVE & W BRIAR PL & N CAMBRIDGE AVE,2021,18963.78,43236,N BROADWAY & W BELMONT AVE,N CAMBRIDGE AVE & W BELMONT AVE,N BROADWAY & W BRIAR PL,N CAMBRIDGE AVE & W BRIAR PL,41.94004781600006,-87.64439649899998,census,41.94006791500004,-87.64319053299994,census,41.9386772,-87.6443673,google,41.93870919300008,-87.64314229399997,census
27,Alley Speed Hump Menu,N LARRABEE ST & N CAMBRIDGE AVE & W OAK ST & W CHICAGO AVE,2011,3300,21932,N LARRABEE ST & W OAK ST,N CAMBRIDGE AVE & W OAK ST,N LARRABEE ST & W CHICAGO AVE,N CAMBRIDGE AVE & W CHICAGO AVE,41.90041574600008,-87.64309003599999,census,41.90043584600005,-87.64190014899998,census,41.896476257000074,-87.64292521999994,census,41.89649635600006,-87.64153835899998,census
44,Alley Resurfacing Menu,W SURF ST & N BROADWAY & N CAMBRIDGE AVE & W DIVERSEY AVE,2013,14716,35546,N BROADWAY & W SURF ST,N CAMBRIDGE AVE & W SURF ST,N BROADWAY & W DIVERSEY AVE,N CAMBRIDGE AVE & W DIVERSEY AVE,41.9348672,-87.6442219,google,41.93427927700003,-87.64278452399998,census,41.93280397900003,-87.64488290499997,census,41.93284417800004,-87.64273628599994,census
44,Alley Resurfacing Menu,W DIVERSEY PKWY & N BROADWAY & W SURF ST & N CAMBRIDGE AVE,2018,23434.7,35868,N BROADWAY & W DIVERSEY PKWY,N CAMBRIDGE AVE & W DIVERSEY PKWY,N BROADWAY & W SURF ST,N CAMBRIDGE AVE & W SURF ST,41.93280397900003,-87.64488290499997,census,41.93284417800004,-87.64273628599994,census,41.9348672,-87.6442219,google,41.93427927700003,-87.64278452399998,census
1,Alley Resurface Menu,W FULLERTON AV & W ALTGELD ST & N MAPLEWOOD AV & N CAMPBELL AV,2005,18260,4,N MAPLEWOOD AV & W FULLERTON AV,N CAMPBELL AV & W FULLERTON AV,N MAPLEWOOD AV & W ALTGELD ST,N CAMPBELL AV & W ALTGELD ST,41.92486470100005,-87.69149751899994,census,41.9248798,-87.6900857,google,41.9266899,-87.691369,google,41.92669777000003,-87.69014683699999,census
47,Alley Speed Hump Menu,N WESTERN AV & N CAMPBELL AV & W GRACE ST & W BERENICE AV,2005,3500,37285,N WESTERN AV & W GRACE ST,N CAMPBELL AV & W GRACE ST,N WESTERN AV & W BERENICE AV,N CAMPBELL AV & W BERENICE AV,41.95038294600005,-87.68835798699996,census,41.950334,-87.6907322,google,41.95128340100007,-87.68838612599995,census,41.95127134100005,-87.69076589999997,census
47,Alley Speed Hump Menu,N WESTERN AV & N CAMPBELL AV & W WARNER AV & W BERTEAU AV,2005,3500,37284,N WESTERN AV & W WARNER AV,N CAMPBELL AV & W WARNER AV,N WESTERN AV & W BERTEAU AV,N CAMPBELL AV & W BERTEAU AV,41.95675848700006,-87.68854692199994,census,41.956742408000025,-87.69099101299997,census,41.957663,-87.6886388,google,41.9576452,-87.6916872,google
26,Alley Speed Hump Menu,N WESTERN AV & N CAMPBELL AV & W OHIO ST & W ERIE ST,2006,1000,20960,N WESTERN AV & W OHIO ST,N CAMPBELL AV & W OHIO ST,N WESTERN AV & W ERIE ST,N CAMPBELL AV & W ERIE ST,41.8921074,-87.6868018,google,41.8920868,-87.6891881,google,41.893022,-87.6868229,google,41.8929936,-87.689186,google
26,Alley Speed Hump Menu,W DIVISION ST & W HADDON AV & N ROCKWELL ST & N CAMPBELL AV,2006,1000,20954,N ROCKWELL ST & W DIVISION ST,N CAMPBELL AV & W DIVISION ST,N ROCKWELL ST & W HADDON AV,N CAMPBELL AV & W HADDON AV,41.9029563,-87.69194,google,41.9029809,-87.6894838,google,41.9020424,-87.6919022,google,41.90206390000003,-87.68946345599994,census
1,Alley Speed Hump Menu,W THOMAS ST & W HADDON AV & N WESTERN AV & N CAMPBELL AV,2005,3500,9,N WESTERN AV & W THOMAS ST,N CAMPBELL AV & W THOMAS ST,N WESTERN AV & W HADDON AV,N CAMPBELL AV & W HADDON AV,41.9011917,-87.6868986,google,41.9011851,-87.6894377,google,41.902088019000075,-87.68700328499995,census,41.90206390000003,-87.68946345599994,census
1,Alley Speed Hump Menu,W CORTLAND ST & W HOMER ST & N WESTERN AV & N CAMPBELL AV,2006,1000,104,N WESTERN AV & W CORTLAND ST,N CAMPBELL AV & W CORTLAND ST,N WESTERN AV & W HOMER ST,N CAMPBELL AV & W HOMER ST,41.91576367600004,-87.68736105499994,census,41.91573955700005,-87.68980514699996,census,41.91667619100008,-87.687385173999985,census,41.916652071000044,-87.68982926599995,census
26,Alley Speed Hump Menu,N WESTERN AV & N CAMPBELL AV & W ERIE ST & W HURON ST,2006,1000,20959,N WESTERN AV & W ERIE ST,N CAMPBELL AV & W ERIE ST,N WESTERN AV & W HURON ST,N CAMPBELL AV & W HURON ST,41.893022,-87.6868229,google,41.8929936,-87.689186,google,41.8939362,-87.68672,google,41.89391156900007,-87.68924236199996,census
26,Alley Speed Hump Menu,N ARTESIAN AV & N CAMPBELL AV & W HIRSCH ST & W LE MOYNE ST,2006,1000,20951,N ARTESIAN AV & W HIRSCH ST,N CAMPBELL AV & W HIRSCH ST,N ARTESIAN AV & W LE MOYNE ST,N CAMPBELL AV & W LE MOYNE ST,41.90665863100003,-87.688353966999955,census,41.90664657200006,-87.68958003299997,census,41.90848366000006,-87.68839818599997,census,41.9084675,-87.6896165,google
26,Alley Speed Hump Menu,N MAPLEWOOD AV & N CAMPBELL AV & W HIRSCH ST & W LE MOYNE ST,2007,1500,21008,N MAPLEWOOD AV & W HIRSCH ST,N CAMPBELL AV & W HIRSCH ST,N MAPLEWOOD AV & W LE MOYNE ST,N CAMPBELL AV & W LE MOYNE ST,41.9066325,-87.6907979,google,41.90664657200006,-87.68958003299997,census,41.9084611,-87.6908429,google,41.9084675,-87.6896165,google
26,Alley Speed Hump Menu,W NORTH AV & W LE MOYNE ST & N MAPLEWOOD AV & N CAMPBELL AV,2005,3500,20907,N MAPLEWOOD AV & W NORTH AV,N CAMPBELL AV & W NORTH AV,N MAPLEWOOD AV & W LE MOYNE ST,N CAMPBELL AV & W LE MOYNE ST,41.9103267,-87.6908796,google,41.9103377,-87.6896565,google,41.9084611,-87.6908429,google,41.9084675,-87.6896165,google
1,Alley Speed Hump Menu,W CORTLAND ST & W MOFFAT ST & N WESTERN AV & N CAMPBELL AV,2006,2500,103,N WESTERN AV & W CORTLAND ST,N CAMPBELL AV & W CORTLAND ST,N WESTERN AV & W MOFFAT ST,N CAMPBELL AV & W MOFFAT ST,41.91576367600004,-87.68736105499994,census,41.91573955700005,-87.68980514699996,census,41.9148479,-87.6874059,google,41.914835082000025,-87.68978102699998,census
1,Concrete Alley Menu,N MAPLEWOOD AV & N CAMPBELL AV & W WABANSIA AV & W NORTH AV,2009,95000,315,N MAPLEWOOD AV & W WABANSIA AV,N CAMPBELL AV & W WABANSIA AV,N MAPLEWOOD AV & W NORTH AV,N CAMPBELL AV & W NORTH AV,41.9121004,-87.6909353,google,41.9121071,-87.6897118,google,41.9103267,-87.6908796,google,41.9103377,-87.6896565,google
50,Alley Resurface Menu,W DEVON AV & N MAPLEWOOD AV & N CAMPBELL AV & W ROSEMONT AV,2010,5939,39856,N MAPLEWOOD AV & W DEVON AV,N CAMPBELL AV & W DEVON AV,N MAPLEWOOD AV & W ROSEMONT AV,N CAMPBELL AV & W ROSEMONT AV,41.9976579,-87.6935437,google,41.9976884,-87.692319,google,41.9958543,-87.6934804,google,41.9958608,-87.6922605,google
40,Alley Resurfacing Menu,N WESTERN AVE & W BERWYN AVE & N CAMPBELL AVE & W BALMORAL AVE,2016,14239.13,32509,N WESTERN AVE & W BERWYN AVE,N CAMPBELL AVE & W BERWYN AVE,N WESTERN AVE & W BALMORAL AVE,N CAMPBELL AVE & W BALMORAL AVE,41.977710140000056,-87.68921824299997,census,41.9776841,-87.6910395,google,41.979527129000076,-87.68929462099999,census,41.97951507000005,-87.69173469299994,census
47,Alley Resurfacing Menu,N WESTERN AVE & W WARNER AVE & N CAMPBELL AVE & W BERTEAU AVE,2015,13450,37847,N WESTERN AVE & W WARNER AVE,N CAMPBELL AVE & W WARNER AVE,N WESTERN AVE & W BERTEAU AVE,N CAMPBELL AVE & W BERTEAU AVE,41.95675848700006,-87.68854692199994,census,41.956742408000025,-87.69099101299997,census,41.95767100200004,-87.68857104099999,census,41.957654922000074,-87.69101915299996,census
47,Alley Resurfacing Menu,N WESTERN AVE & W HUTCHINSON ST & N CAMPBELL AVE & W CULLOM AVE,2018,20158.57,38064,N WESTERN AVE & W HUTCHINSON ST,N CAMPBELL AVE & W HUTCHINSON ST,N WESTERN AVE & W CULLOM AVE,N CAMPBELL AVE & W CULLOM AVE,41.9585703,-87.6886684,google,41.95856341700005,-87.69172263299998,census,41.959492011000066,-87.68862731999997,census,41.9594611,-87.6917477,google
50,Alley Speed Hump Menu,N WESTERN AVE & W PRATT BLVD & W FARWELL AVE & N CAMPBELL AVE,2021,1400,40159,N WESTERN AVE & W PRATT BLVD,N CAMPBELL AVE & W PRATT BLVD,N WESTERN AVE & W FARWELL AVE,N CAMPBELL AVE & W FARWELL AVE,42.00503331500005,-87.69007045899997,census,42.00498909600003,-87.69250651099998,census,42.00625536000007,-87.69009859799996,census,42.0058727,-87.6925165,google
26,Alley Resurfacing Menu,N ARTESIAN AVE & W POTOMAC AVE & W HIRSCH ST & N CAMPBELL AVE,2022,22075.835,41864,N ARTESIAN AVE & W POTOMAC AVE,N CAMPBELL AVE & W POTOMAC AVE,N ARTESIAN AVE & W HIRSCH ST,N CAMPBELL AVE & W HIRSCH ST,41.90483762200006,-87.68830572899998,census,41.904821543000025,-87.68953581399995,census,41.90665863100003,-87.688353966999955,census,41.90664657200006,-87.68958003299997,census
40,Alley Resurfacing Menu,W ARDMORE AVE & N MAPLEWOOD AVE & W HOLLYWOOD AVE & N CAMPBELL AVE,2020,46012.91,32647,N MAPLEWOOD AVE & W ARDMORE AVE,N CAMPBELL AVE & W ARDMORE AVE,N MAPLEWOOD AVE & W HOLLYWOOD AVE,N CAMPBELL AVE & W HOLLYWOOD AVE,41.9867781,-87.6931886,google,41.986799106000035,-87.69198392599998,census,41.9849665,-87.6931393,google,41.98497809700007,-87.69192764699994,census
50,Alley Resurfacing Menu,W COYLE AVE & N WESTERN AVE & N CAMPBELL AVE & W LUNT AVE,2020,60400.81,40136,N WESTERN AVE & W COYLE AVE,N CAMPBELL AVE & W COYLE AVE,N WESTERN AVE & W LUNT AVE,N CAMPBELL AVE & W LUNT AVE,42.0077244,-87.690192,google,42.007702520000066,-87.69254670999999,census,42.0086426,-87.6900961,google,42.00861101400005,-87.69256278899996,census
47,Alley Resurfacing Menu,W PENSACOLA AVE & N WESTERN AVE & W MONTROSE AVE & N CAMPBELL AVE,2014,28045,37778,N WESTERN AVE & W PENSACOLA AVE,N CAMPBELL AVE & W PENSACOLA AVE,N WESTERN AVE & W MONTROSE AVE,N CAMPBELL AVE & W MONTROSE AVE,41.96040452500006,-87.68865545899996,census,41.960384426000076,-87.69177891099997,census,41.9613174,-87.6886087,google,41.9612991,-87.6917983,google
1,Alley Resurfacing Menu,N ARTESIAN AVE & W WABANSIA AVE & W NORTH AVE & N CAMPBELL AVE,2019,28677.91,40250,N ARTESIAN AVE & W WABANSIA AVE,N CAMPBELL AVE & W WABANSIA AVE,N ARTESIAN AVE & W NORTH AVE,N CAMPBELL AVE & W NORTH AVE,41.91212567800005,-87.68848260399994,census,41.9121071,-87.6897118,google,41.9102519,-87.688432,google,41.9103377,-87.6896565,google
1,Alley Speed Hump Menu,N OAKLEY AVE & N CAMPBELL AVE & W HIRSCH ST & W POTOMAC AVE,2011,700,381,N OAKLEY AVE & W HIRSCH ST,N CAMPBELL AVE & W HIRSCH ST,N OAKLEY AVE & W POTOMAC AVE,N CAMPBELL AVE & W POTOMAC AVE,41.9067079,-87.6846704,google,41.90664657200006,-87.68958003299997,census,41.904881841000076,-87.68463155199998,census,41.904821543000025,-87.68953581399995,census
47,Alley Resurfacing Menu,N WESTERN AVE & W BELLE PLAINE AVE & N CAMPBELL AVE & W WARNER AVE,2015,27537,37844,N WESTERN AVE & W BELLE PLAINE AVE,N CAMPBELL AVE & W BELLE PLAINE AVE,N WESTERN AVE & W WARNER AVE,N CAMPBELL AVE & W WARNER AVE,41.95584999300007,-87.68851878299995,census,41.955834,-87.6909538,google,41.95675848700006,-87.68854692199994,census,41.956742408000025,-87.69099101299997,census
47,Concrete Alley Menu,W ADDISON ST & N ARTESIAN AVE & W WAVELAND AVE & N CAMPBELL AVE,2020,5997.72,43383,N ARTESIAN AVE & W ADDISON ST,N CAMPBELL AVE & W ADDISON ST,N ARTESIAN AVE & W WAVELAND AVE,N CAMPBELL AVE & W WAVELAND AVE,41.94673288800004,-87.68946747599995,census,41.94672886800004,-87.69068148199995,census,41.94852977800008,-87.68951973499998,census,41.94852173800007,-87.69072972099997,census
41,Alley Resurface Menu,W GREGORY ST & N OZANAM AV & W BRYN MAWR AV & N CANFIELD AV,2005,17922,32722,N OZANAM AV & W GREGORY ST,N CANFIELD AV & W GREGORY ST,N OZANAM AV & W BRYN MAWR AV,N CANFIELD AV & W BRYN MAWR AV,41.98051200200007,-87.82181020699994,census,41.9804532,-87.8238493,google,41.98141647600005,-87.82180618699994,census,41.9813605,-87.8237296,google
41,Concrete Alley Menu,W FARRAGUT AV & W FOSTER AV & N OZANAM AV & N CANFIELD AV,2007,59000,32843,N OZANAM AV & W FARRAGUT AV,N CANFIELD AV & W FARRAGUT AV,N OZANAM AV & W FOSTER AV,N CANFIELD AV & W FOSTER AV,41.97506907400003,-87.82184236599994,census,41.9749979,-87.8245563,google,41.974160580000046,-87.82184638599995,census,41.97403596300006,-87.82673456899994,census
41,Concrete Alley Menu,W FARRAGUT AV & W FOSTER AV & N OZANAM AV & N CANFIELD AV,2007,67000,32844,N OZANAM AV & W FARRAGUT AV,N CANFIELD AV & W FARRAGUT AV,N OZANAM AV & W FOSTER AV,N CANFIELD AV & W FOSTER AV,41.97506907400003,-87.82184236599994,census,41.9749979,-87.8245563,google,41.974160580000046,-87.82184638599995,census,41.97403596300006,-87.82673456899994,census
27,Alley Speed Hump Menu,N CARPENTER ST & W HURON ST & N MILWAUKEE AVE & N MORGAN ST,2012,700,21955,N CARPENTER ST & W HURON ST,N MILWAUKEE AVE & W HURON ST,N MORGAN ST & W HURON ST,N CARPENTER ST & N MILWAUKEE AVE,41.894393955000055,-87.65354978299996,census,41.89440199500007,-87.65256088999996,census,41.8950289,-87.6526206,google,41.895065276000025,-87.65356988199994,census
27,Concrete Alley Menu,N ABERDEEN ST & N CARPENTER ST & W CARROLL AVE & W FULTON ST,2012,150000,21957,N ABERDEEN ST & W CARROLL AVE,N CARPENTER ST & W CARROLL AVE,N ABERDEEN ST & W FULTON ST,N CARPENTER ST & W FULTON ST,41.88773300200006,-87.65453063499996,census,41.88774908100004,-87.65336486799998,census,41.8867142,-87.6545262,google,41.88672401000008,-87.65333672899999,census
27,Alley Resurfacing Menu,N ABERDEEN ST & W KINZIE ST & N CARPENTER ST & W HUBBARD ST,2015,1987,22071,N ABERDEEN ST & W KINZIE ST,N CARPENTER ST & W KINZIE ST,N ABERDEEN ST & W HUBBARD ST,N CARPENTER ST & W HUBBARD ST,41.88897916700006,-87.65456681399996,census,41.88897916700006,-87.65339702699998,census,41.8900234,-87.6546142,google,41.89002835700006,-87.65342918599998,census
41,Alley Speed Hump Menu,N ALGONQUIN AV & N CENTRAL AV & N LEOTI AV & N TAHOMA AV,2007,500,32841,N ALGONQUIN AV & N TAHOMA AV,N CENTRAL AV & N TAHOMA AV,N LEOTI AV & N TAHOMA AV,N CENTRAL AV & N ALGONQUIN AV,42.00005669400008,-87.76565238099994,census,41.99893,-87.763223,google,42.0002498,-87.7683558,google,42.0023659,-87.7637404,google
31,Alley Resurface Menu,N LUNA AV & N CENTRAL AV & W WELLINGTON AV & W BARRY AV,2006,17897,24842,N LUNA AV & W WELLINGTON AV,N CENTRAL AV & W WELLINGTON AV,N LUNA AV & W BARRY AV,N CENTRAL AV & W BARRY AV,41.9349428,-87.7651427,google,41.9349177,-87.7663597,google,41.9367602,-87.7652126,google,41.9367469,-87.7664253,google
31,Alley Speed Hump Menu,N PARKSIDE AV & N CENTRAL AV & W WELLINGTON AV & W BARRY AV,2008,1000,25029,N PARKSIDE AV & W WELLINGTON AV,N CENTRAL AV & W WELLINGTON AV,N PARKSIDE AV & W BARRY AV,N CENTRAL AV & W BARRY AV,41.93491442000004,-87.76758594699999,census,41.9349177,-87.7663597,google,41.93673542800008,-87.76765026499999,census,41.9367469,-87.7664253,google
30,Alley Speed Hump Menu,N LINDER AV & N CENTRAL AV & W PARKER AV & W DIVERSEY AV,2008,1000,24021,N LINDER AV & W PARKER AV,N CENTRAL AV & W PARKER AV,N LINDER AV & W DIVERSEY AV,N CENTRAL AV & W DIVERSEY AV,41.9303921,-87.7637546,google,41.9303633,-87.7662157,google,41.9313033,-87.7637866,google,41.9312712,-87.7662482,google
37,Alley Resurface Menu,W KAMERLING AV & W HIRSCH ST & N PINE AV & N CENTRAL AV,2007,20978,29909,N PINE AV & W KAMERLING AV,N CENTRAL AV & W KAMERLING AV,N PINE AV & W HIRSCH ST,N CENTRAL AV & W HIRSCH ST,41.904873801000065,-87.76391980999995,census,41.904853702000025,-87.76574885799994,census,41.9057882,-87.7639181,google,41.90576219600007,-87.76578101699994,census
37,Alley Resurface Menu,N PINE AV & N CENTRAL AV & W OHIO ST & W HURON ST,2007,27804,29914,N PINE AV & W OHIO ST,N CENTRAL AV & W OHIO ST,N PINE AV & W HURON ST,N CENTRAL AV & W HURON ST,41.8911117,-87.7634098,google,41.8910898,-87.7652393,google,41.8929401,-87.7634911,google,41.892926696000075,-87.76531872999999,census
38,Alley Speed Hump Menu,W PENSACOLA AV & W MONTROSE AV & N LINDER AV & N CENTRAL AV,2005,1750,30511,N LINDER AV & W PENSACOLA AV,N CENTRAL AV & W PENSACOLA AV,N LINDER AV & W MONTROSE AV,N CENTRAL AV & W MONTROSE AV,41.959601,-87.7647427,google,41.9595685,-87.7672216,google,41.9605018,-87.764779,google,41.9604838,-87.7672445,google
37,Alley Speed Hump Menu,W OHIO ST & W RACE AV & N PINE AV & N CENTRAL AV,2005,1750,29812,N PINE AV & W OHIO ST,N CENTRAL AV & W OHIO ST,N PINE AV & W RACE AV,N CENTRAL AV & W RACE AV,41.8911117,-87.7634098,google,41.8910898,-87.7652393,google,41.8893011,-87.7633532,google,41.889295,-87.7651774,google
29,Alley Resurface Menu,N PARKSIDE AV & N CENTRAL AV & W WASHINGTON & W WEST END AV,2009,17007,23233,N PARKSIDE AV & W WASHINGTON,N CENTRAL AV & W WASHINGTON,N PARKSIDE AV & W WEST END AV,N CENTRAL AV & W WEST END AV,41.88221771600007,-87.76657293499994,census,41.8822362,-87.7649272,google,41.8842188,-87.7666498,google,41.88423570000003,-87.76500115899995,census
38,Alley Resurface Menu,"W WARWICK AV & W WAVELAND AV & N LINDER AV & N CENTRAL AV5 ,091",2009,25091,30761,N LINDER AV & W WARWICK AV,"N CENTRAL AV5 ,091 & W WARWICK AV",N LINDER AV & W WAVELAND AV,"N CENTRAL AV5 ,091 & W WAVELAND AV",41.9487922,-87.7643623,google,41.9487397,-87.7569883,google,41.9477362,-87.7643476,google,41.9480301,-87.7402524,google
39,Alley Resurfacing Menu,W DEVON AVE & N CALDWELL AVE & N CENTRAL AVE & N LEOTI AVE,2014,5349,31694,N CALDWELL AVE & W DEVON AVE,N CENTRAL AVE & W DEVON AVE,N LEOTI AVE & W DEVON AVE,N CENTRAL AVE & N CALDWELL AVE,41.99730307100003,-87.76668951199997,census,41.9973842,-87.7637801,google,42.0002498,-87.7683558,google,41.996141324000064,-87.76421326099995,census
36,Alley Speed Hump Menu,N LUNA AVE & W WAVELAND AVE & N CENTRAL AVE & W ADDISON ST,2018,1400,29540,N LUNA AVE & W WAVELAND AVE,N CENTRAL AVE & W WAVELAND AVE,N LUNA AVE & W ADDISON ST,N CENTRAL AVE & W ADDISON ST,41.9477178,-87.765576,google,41.947705701000075,-87.76681814799997,census,41.9458904,-87.7655156,google,41.9458764,-87.7667512,google
35,Alley Resurfacing Menu,N MONTICELLO AVE & W FULLERTON AVE & N CENTRAL AVE & W BELDEN AVE,2013,25825,28515,N MONTICELLO AVE & W FULLERTON AVE,N CENTRAL AVE & W FULLERTON AVE,N MONTICELLO AVE & W BELDEN AVE,N CENTRAL AVE & W BELDEN AVE,41.9246465,-87.7182063,google,41.923938,-87.7659907,google,41.9227754,-87.7181394,google,41.922153,-87.7659225,google
37,Alley Resurfacing Menu,N LUNA AVE & W HIRSCH ST & N CENTRAL AVE & W LE MOYNE ST,2018,21534.58,42743,N LUNA AVE & W HIRSCH ST,N CENTRAL AVE & W HIRSCH ST,N LUNA AVE & W LE MOYNE ST,N CENTRAL AVE & W LE MOYNE ST,41.905787,-87.7645413,google,41.90576219600007,-87.76578101699994,census,41.9075891,-87.7646031,google,41.9075737,-87.7658397,google
30,Alley Speed Hump Menu,W BELMONT AVE & N LONG AVE & W MELROSE ST & N CENTRAL AVE,2018,1400,24578,N LONG AVE & W BELMONT AVE,N CENTRAL AVE & W BELMONT AVE,N LONG AVE & W MELROSE ST,N CENTRAL AVE & W MELROSE ST,41.938640855000074,-87.76159229499996,census,41.9385855,-87.7665019,google,41.939553370000056,-87.76162445399996,census,41.939489051000066,-87.76652871699997,census
36,Alley Speed Hump Menu,N PARKSIDE AVE & W BELDEN AVE & N CENTRAL AVE & W PALMER ST,2016,1400,29445,N PARKSIDE AVE & W BELDEN AVE,N CENTRAL AVE & W BELDEN AVE,N PARKSIDE AVE & W PALMER ST,N CENTRAL AVE & W PALMER ST,41.92213921800004,-87.76713571999994,census,41.922153,-87.7659225,google,41.9203073,-87.767064,google,41.920323,-87.7658414,google
29,Alley Speed Hump Menu,N PARKSIDE AVE & W HIRSCH ST & N CENTRAL AVE & W POTOMAC AVE,2017,1400,23506,N PARKSIDE AVE & W HIRSCH ST,N CENTRAL AVE & W HIRSCH ST,N PARKSIDE AVE & W POTOMAC AVE,N CENTRAL AVE & W POTOMAC AVE,41.905746117000035,-87.76699100399998,census,41.90576219600007,-87.76578101699994,census,41.90393716800003,-87.76693070499994,census,41.90395324700006,-87.76571669899994,census
37,Alley Resurfacing Menu,W CHICAGO AVE & N PINE AVE & W RICE ST & N CENTRAL AVE,2014,21633,30204,N PINE AVE & W CHICAGO AVE,N CENTRAL AVE & W CHICAGO AVE,N PINE AVE & W RICE ST,N CENTRAL AVE & W RICE ST,41.8948674,-87.7635637,google,41.8948425,-87.7653897,google,41.89578081600007,-87.76359419899995,census,41.889292718000036,-87.76517803399997,census
30,Alley Resurfacing Menu (1-1),W DRUMMOND PL & N LINDER AVE & N CENTRAL AVE & W SCHUBERT AVE,2020,15953.49,42172,N LINDER AVE & W DRUMMOND PL,N CENTRAL AVE & W DRUMMOND PL,N LINDER AVE & W SCHUBERT AVE,N CENTRAL AVE & W SCHUBERT AVE,41.928575057000046,-87.76369067599995,census,41.928542898000046,-87.76613878699999,census,41.92948757200003,-87.76372283499995,census,41.92945541300003,-87.76617898599994,census
30,Alley Resurfacing Menu,W DRUMMOND PL & N LINDER AVE & N CENTRAL AVE & W WRIGHTWOOD AVE,2022,20640.76,42243,N LINDER AVE & W DRUMMOND PL,N CENTRAL AVE & W DRUMMOND PL,N LINDER AVE & W WRIGHTWOOD AVE,N CENTRAL AVE & W WRIGHTWOOD AVE,41.928575057000046,-87.76369067599995,census,41.928542898000046,-87.76613878699999,census,41.927662543000054,-87.76365851699995,census,41.9276128,-87.7661194,google
30,Alley Resurfacing Menu,W HENDERSON ST & N LINDER AVE & N CENTRAL AVE & WSCHOOL ST,2022,10665.205,42247,N LINDER AVE & W HENDERSON ST,N CENTRAL AVE & W HENDERSON ST,N LINDER AVE & WSCHOOL ST,N CENTRAL AVE & WSCHOOL ST,41.94134623900004,-87.76414090299994,census,41.94131408000004,-87.76659303499997,census,41.9404238,-87.7640941,google,41.9403897,-87.7665615,google
35,Alley Speed Hump Menu,W OAKDALE AV & N MILWAUKEE AV & N CENTRAL PARK & N RIDGEWAY AV,2007,1500,28187,N MILWAUKEE AV & W OAKDALE AV,N CENTRAL PARK & W OAKDALE AV,N RIDGEWAY AV & W OAKDALE AV,N CENTRAL PARK & N MILWAUKEE AV,41.9480062,-87.7384381,google,41.9346478,-87.7172549,google,41.934930499000075,-87.71996234099998,census,41.9350725,-87.7172697,google
26,Alley Speed Hump Menu,N DRAKE AV & N CENTRAL PARK & W BLOOMINGDALE AV & W CORTLAND ST,2006,2000,20958,N DRAKE AV & W BLOOMINGDALE AV,N CENTRAL PARK & W BLOOMINGDALE AV,N DRAKE AV & W CORTLAND ST,N CENTRAL PARK & W CORTLAND ST,41.91357283800005,-87.71503797899999,census,41.91355273800008,-87.71665397399994,census,41.91548630400007,-87.71509425799997,census,41.915456,-87.7167074,google
26,Alley Speed Hump Menu,W MCLEAN AV & W DICKENS AV & N LAWNDALE AV & N CENTRAL PARK,2005,2625,20914,N LAWNDALE AV & W MCLEAN AV,N CENTRAL PARK & W MCLEAN AV,N LAWNDALE AV & W DICKENS AV,N CENTRAL PARK & W DICKENS AV,41.9181657,-87.7192098,google,41.9182067,-87.7167877,google,41.9190907,-87.7192463,google,41.9191086,-87.7168296,google
27,Alley Resurface Menu,N MONTICELLO AV & N CENTRAL PARK & W OHIO ST & W HURON ST,2005,15392,21586,N MONTICELLO AV & W OHIO ST,N CENTRAL PARK & W OHIO ST,N MONTICELLO AV & W HURON ST,N CENTRAL PARK & W HURON ST,41.8917661,-87.7174273,google,41.8917892,-87.7162,google,41.8936031,-87.7174702,google,41.8936198,-87.7162529,google
26,Alley Resurface Menu,W ARMITAGE AV & W MCLEAN AV & N DRAKE AV & N CENTRAL PARK,2005,9890,20905,N DRAKE AV & W ARMITAGE AV,N CENTRAL PARK & W ARMITAGE AV,N DRAKE AV & W MCLEAN AV,N CENTRAL PARK & W MCLEAN AV,41.9173171,-87.7151436,google,41.91728319400005,-87.71677055099997,census,41.9182123,-87.7151626,google,41.9182067,-87.7167877,google
26,Alley Speed Hump Menu,W FULLERTON AV & W MEDILL AV & N DRAKE AV & N CENTRAL PARK,2005,1750,20918,N DRAKE AV & W FULLERTON AV,N CENTRAL PARK & W FULLERTON AV,N DRAKE AV & W MEDILL AV,N CENTRAL PARK & W MEDILL AV,41.9245842,-87.7153519,google,41.9245741,-87.7169794,google,41.92371099300004,-87.71535153099995,census,41.9236847,-87.7169578,google
35,Alley Resurface Menu,W ADDISON ST & W WAVELAND AV & N MONTICELLO AV & N CENTRAL PARK,2008,21192,28259,N MONTICELLO AV & W ADDISON ST,N CENTRAL PARK & W ADDISON ST,N MONTICELLO AV & W WAVELAND AV,N CENTRAL PARK & W WAVELAND AV,41.9480384,-87.7188928,google,41.945880672000044,-87.76675382999997,census,41.9483108,-87.7188772,google,41.9483295,-87.7176528,google
30,Alley Resurfacing Menu,N CENTRAL PARK AVE & W BARRY AVE & N MONTICELLO AVE & N MILWAUKEE AVE,2019,17282.6,24646,N CENTRAL PARK AVE & W BARRY AVE,N MONTICELLO AVE & W BARRY AVE,N MILWAUKEE AVE & W BARRY AVE,N CENTRAL PARK AVE & N MILWAUKEE AVE,41.937394690000076,-87.71732931499997,census,41.93737459100004,-87.71851920199998,census,41.937184,-87.732932,google,41.9350725,-87.7172697,google
30,Alley Resurfacing Menu,N CENTRAL PARK AVE & N MILWAUKEE AVE & N RIDGEWAY AVE & W OAKDALE AVE,2016,40765.82,24459,N CENTRAL PARK AVE & W OAKDALE AVE,N MILWAUKEE AVE & W OAKDALE AVE,N RIDGEWAY AVE & W OAKDALE AVE,N CENTRAL PARK AVE & N MILWAUKEE AVE,41.9346478,-87.7172549,google,41.9480062,-87.7384381,google,41.934930499000075,-87.71996234099998,census,41.9350725,-87.7172697,google
27,Alley Resurfacing Menu,N DRAKE AVE & W IOWA ST & N CENTRAL PARK AVE & W AUGUSTA BLVD,2015,32641,22074,N DRAKE AVE & W IOWA ST,N CENTRAL PARK AVE & W IOWA ST,N DRAKE AVE & W AUGUSTA BLVD,N CENTRAL PARK AVE & W AUGUSTA BLVD,41.89729631400007,-87.71515455599996,census,41.89728827400006,-87.71637258199996,census,41.89912134300005,-87.71521083499994,census,41.89910928300003,-87.71643287999996,census
26,Alley Resurfacing Menu,W HIRSCH ST & N ST LOUIS AVE & N CENTRAL PARK AVE & W BEACH AVE,2021,39795.3,21543,N ST LOUIS AVE & W HIRSCH ST,N CENTRAL PARK AVE & W HIRSCH ST,N ST LOUIS AVE & W BEACH AVE,N CENTRAL PARK AVE & W BEACH AVE,41.90639733900008,-87.71423400199996,census,41.90637723900005,-87.71667809399997,census,41.9072926,-87.7142614,google,41.907273674000066,-87.71671025299997,census
30,Alley Resurfacing Menu,N MONTICELLO AVE & W BARRY AVE & N CENTRAL PARK AVE & W BELMONT AVE,2016,46634.32,24465,N MONTICELLO AVE & W BARRY AVE,N CENTRAL PARK AVE & W BARRY AVE,N MONTICELLO AVE & W BELMONT AVE,N CENTRAL PARK AVE & W BELMONT AVE,41.93737459100004,-87.71851920199998,census,41.937394690000076,-87.71732931499997,census,41.9391965,-87.7186146,google,41.93921971900005,-87.71739765299998,census
26,Alley Resurfacing Menu,W ARMITAGE AVE & N DRAKE AVE & N CENTRAL PARK AVE & W CORTLAND ST,2022,73806.72,21565,N DRAKE AVE & W ARMITAGE AVE,N CENTRAL PARK AVE & W ARMITAGE AVE,N DRAKE AVE & W CORTLAND ST,N CENTRAL PARK AVE & W CORTLAND ST,41.9173171,-87.7151436,google,41.91728319400005,-87.71677055099997,census,41.91548630400007,-87.71509425799997,census,41.915456,-87.7167074,google
35,Alley Resurfacing Menu,N DRAKE AVE & W BERTEAU AVE & W CULLOM AVE & N CENTRAL PARK AVE,2021,46337.89,28862,N DRAKE AVE & W BERTEAU AVE,N CENTRAL PARK AVE & W BERTEAU AVE,N DRAKE AVE & W CULLOM AVE,N CENTRAL PARK AVE & W CULLOM AVE,41.95744990800006,-87.71669417299995,census,41.957433828000035,-87.71792023899997,census,41.95926689700008,-87.71675447099994,census,41.959250818000044,-87.71797651699995,census
27,Concrete Alley Menu,N DRAKE AVE & W OHIO ST & W FRANKLIN BLVD & N CENTRAL PARK AVE,2021,213338.03,22265,N DRAKE AVE & W OHIO ST,N CENTRAL PARK AVE & W OHIO ST,N DRAKE AVE & W FRANKLIN BLVD,N CENTRAL PARK AVE & W FRANKLIN BLVD,41.891809167000076,-87.71498170099994,census,41.8917892,-87.7162,google,41.8902279,-87.7149414,google,41.8899719,-87.7163432,google
27,Alley Resurfacing Menu,N MONTICELLO AVE & W CHICAGO AVE & N CENTRAL PARK AVE & W HURON ST,2018,32463.22,22194,N MONTICELLO AVE & W CHICAGO AVE,N CENTRAL PARK AVE & W CHICAGO AVE,N MONTICELLO AVE & W HURON ST,N CENTRAL PARK AVE & W HURON ST,41.8954421,-87.7175234,google,41.89546324500003,-87.71631228399997,census,41.8936031,-87.7174702,google,41.89362615700003,-87.71626002499994,census
26,Alley Resurfacing Menu,W PIERCE AVE & N ST LOUIS AVE & N CENTRAL PARK AVE & W LEMOYNE ST,2021,22499.695,41806,N ST LOUIS AVE & W PIERCE AVE,N CENTRAL PARK AVE & W PIERCE AVE,N ST LOUIS AVE & W LEMOYNE ST,N CENTRAL PARK AVE & W LEMOYNE ST,41.9090919,-87.714322,google,41.9090613,-87.7167625,google,41.908202268000025,-87.71429831999995,census,41.90818216900004,-87.71674241199997,census
26,Alley Resurfacing Menu,W DICKENS AVE & N LAWNDALE AVE & N CENTRAL PARK AVE & W MCLEAN AVE,2022,23288.325,41876,N LAWNDALE AVE & W DICKENS AVE,N CENTRAL PARK AVE & W DICKENS AVE,N LAWNDALE AVE & W MCLEAN AVE,N CENTRAL PARK AVE & W MCLEAN AVE,41.919084103000046,-87.71927092099997,census,41.919116262000045,-87.71682682899996,census,41.9181657,-87.7192098,google,41.91819972800005,-87.71679868999996,census
26,Alley Resurfacing Menu,N MONTICELLO AVE & W WABANSIA AVE & N CENTRAL PARK AVE & W NORTH AVE,2015,40517,21334,N MONTICELLO AVE & W WABANSIA AVE,N CENTRAL PARK AVE & W WABANSIA AVE,N MONTICELLO AVE & W NORTH AVE,N CENTRAL PARK AVE & W NORTH AVE,41.9117984,-87.7178222,google,41.911803,-87.7166072,google,41.9099196,-87.7180012,google,41.90999915800006,-87.71669819299996,census
26,Alley Resurfacing Menu,N MONTICELLO AVE & W DIVISION ST & W POTOMAC AVE & N CENTRAL PARK AVE,2020,18144.335,41770,N MONTICELLO AVE & W DIVISION ST,N CENTRAL PARK AVE & W DIVISION ST,N MONTICELLO AVE & W POTOMAC AVE,N CENTRAL PARK AVE & W POTOMAC AVE,41.9027479,-87.717774,google,41.9027541,-87.7165588,google,41.9045474,-87.7178319,google,41.90456427000004,-87.71662181499994,census
31,Alley Speed Hump Menu,N MONTICELLO AVE & W WRIGHTWOOD AVE & N CENTRAL PARK AVE & W SCHUBERT AVE,2015,2800,25426,N MONTICELLO AVE & W WRIGHTWOOD AVE,N CENTRAL PARK AVE & W WRIGHTWOOD AVE,N MONTICELLO AVE & W SCHUBERT AVE,N CENTRAL PARK AVE & W SCHUBERT AVE,41.9282397,-87.7183165,google,41.9282568,-87.7170948,google,41.9300862,-87.7183703,google,41.930094575000055,-87.71714439999994,census
35,Alley Speed Hump Menu,N DRAKE AVE & W GRACE ST & W WAVELAND AVE & N CENTRAL PARK AVE,2019,700,28751,N DRAKE AVE & W GRACE ST,N CENTRAL PARK AVE & W GRACE ST,N DRAKE AVE & W WAVELAND AVE,N CENTRAL PARK AVE & W WAVELAND AVE,41.95016587200007,-87.71648513899999,census,41.9501428,-87.7176982,google,41.948344863000045,-87.71644091999997,census,41.94832878400007,-87.71766296599998,census
33,Alley Speed Hump Menu,N DRAKE AVE & W LELAND AVE & N CENTRAL PARK AVE & W WILSON AVE,2015,1400,26891,N DRAKE AVE & W LELAND AVE,N CENTRAL PARK AVE & W LELAND AVE,N DRAKE AVE & W WILSON AVE,N CENTRAL PARK AVE & W WILSON AVE,41.96654691300006,-87.71697556499998,census,41.966530834000025,-87.71819359099999,census,41.9647191,-87.7169165,google,41.9647036,-87.7181394,google
39,Alley Resurface Menu,N KIMBALL AV & N CHRISTIANA AV & W FOSTER DR & W BERWYN AV,2006,19918,31345,N KIMBALL AV & W FOSTER DR,N CHRISTIANA AV & W FOSTER DR,N KIMBALL AV & W BERWYN AV,N CHRISTIANA AV & W BERWYN AV,41.975692157000026,-87.71355464099997,census,41.97570823600006,-87.71233259499996,census,41.97752924500003,-87.71358679999997,census,41.977541305000045,-87.71236877399997,census
40,Alley Resurface Menu,N SPAULDING AV & N CHRISTIANA AV & W BALMORAL AV & W CATALPA AV,2010,25283,32262,N SPAULDING AV & W BALMORAL AV,N CHRISTIANA AV & W BALMORAL AV,N SPAULDING AV & W CATALPA AV,N CHRISTIANA AV & W CATALPA AV,41.97939447300007,-87.71119898699999,census,41.97937437400003,-87.71241701299994,census,41.9812332,-87.7112441,google,41.98121146200003,-87.71246123199995,census
28,Alley Resurface Menu,W JACKSON BV & W GLADYS AV & N HOMAN BV & N CHRISTIANA AV,2007,16720,22480,N HOMAN BV & W JACKSON BV,N CHRISTIANA AV & W JACKSON BV,N HOMAN BV & W GLADYS AV,N CHRISTIANA AV & W GLADYS AV,41.8772727,-87.7108666,google,41.877286,-87.7097801,google,41.8761818,-87.7108445,google,41.876207985000065,-87.70964329099996,census
28,Alley Resurface Menu,W VAN BUREN ST & W GLADYS AV & N SPAULDING AV & N CHRISTIANA AV,2007,9023,22479,N SPAULDING AV & W VAN BUREN ST,N CHRISTIANA AV & W VAN BUREN ST,N SPAULDING AV & W GLADYS AV,N CHRISTIANA AV & W GLADYS AV,41.87548038500006,-87.70846546399997,census,41.8754592,-87.7096136,google,41.8762153,-87.7084169,google,41.876207985000065,-87.70964329099996,census
33,Alley Speed Hump Menu,W MONTROSE AV & W SUNNYSIDE AV & N KIMBALL AV & N CHRISTIANA AV,2007,1000,26611,N KIMBALL AV & W MONTROSE AV,N CHRISTIANA AV & W MONTROSE AV,N KIMBALL AV & W SUNNYSIDE AV,N CHRISTIANA AV & W SUNNYSIDE AV,41.96113212500006,-87.71313255299998,census,41.961144184000034,-87.71190648699996,census,41.96295715400004,-87.71319687099998,census,41.96297323300007,-87.71197080499996,census
35,Alley Speed Hump Menu,N KIMBALL AVE & W WAVELAND AVE & N CHRISTIANA AVE & W ADDISON ST,2019,1400,28752,N KIMBALL AVE & W WAVELAND AVE,N CHRISTIANA AVE & W WAVELAND AVE,N KIMBALL AVE & W ADDISON ST,N CHRISTIANA AVE & W ADDISON ST,41.94839310200007,-87.71276674299997,census,41.94840516100004,-87.71154469699997,census,41.94656807300004,-87.71271046499999,census,41.94658415300006,-87.71149243899998,census
35,Alley Resurfacing Menu,N KIMBALL AVE & W WELLINGTON AVE & N CHRISTIANA AVE & W BARRY AVE,2017,39912,28666,N KIMBALL AVE & W WELLINGTON AVE,N CHRISTIANA AVE & W WELLINGTON AVE,N KIMBALL AVE & W BARRY AVE,N CHRISTIANA AVE & W BARRY AVE,41.9356447,-87.7123766,google,41.9356643,-87.7111526,google,41.937463028000025,-87.71242907299995,census,41.93747910800005,-87.71121506699996,census
33,Alley Resurfacing Menu,N KIMBALL AVE & W BYRON ST & W GRACE ST & N CHRISTIANA AVE,2019,17109.695,42478,N KIMBALL AVE & W BYRON ST,N CHRISTIANA AVE & W BYRON ST,N KIMBALL AVE & W GRACE ST,N CHRISTIANA AVE & W GRACE ST,41.95203914000007,-87.71284312099993,census,41.952055219000044,-87.71162509499999,census,41.95021813100004,-87.71280694199999,census,41.950234210000076,-87.71158489599998,census
26,Alley Resurfacing Menu,W DIVISION ST & N HOMAN AVE & W GRAND AVE & N CHRISTIANA AVE,2014,48960,21295,N HOMAN AVE & W DIVISION ST,N CHRISTIANA AVE & W DIVISION ST,N HOMAN AVE & W GRAND AVE,N CHRISTIANA AVE & W GRAND AVE,41.9027922,-87.7116721,google,41.902791500000035,-87.71061610299995,census,41.9002346,-87.7114206,google,41.899861,-87.7105344,google
39,Alley Resurface Menu,N CICERO AV & N KEATING AV & W DEVON AV & N HIAWATHA AV,2007,53976,31385,N CICERO AV & W DEVON AV,N KEATING AV & W DEVON AV,N HIAWATHA AV & W DEVON AV,N CICERO AV & N HIAWATHA AV,41.9972271,-87.7483256,google,41.997286992000056,-87.74713275999994,census,41.9972627,-87.7573531,google,41.9930445,-87.7483322,google
31,Alley Speed Hump Menu,N KEATING AV & N CICERO AV & W WELLINGTON AV & W BARRY AV,2006,1000,24847,N KEATING AV & W WELLINGTON AV,N CICERO AV & W WELLINGTON AV,N KEATING AV & W BARRY AV,N CICERO AV & W BARRY AV,41.93519983200008,-87.74546852699996,census,41.93518375200006,-87.74673881099994,census,41.937024860000065,-87.74554088499997,census,41.937004761000026,-87.74681116899995,census
37,Alley Resurface Menu,W RICE ST & W CHICAGO AV & N KILPATRICK AV & N CICERO AV,2006,19593,29842,N KILPATRICK AV & W RICE ST,N CICERO AV & W RICE ST,N KILPATRICK AV & W CHICAGO AV,N CICERO AV & W CHICAGO AV,41.89601397000007,-87.74354702099998,census,41.89595367100003,-87.74583031699996,census,41.89504919700005,-87.74352290099995,census,41.89500497800003,-87.74580619699998,census
37,Alley Resurface Menu,W AUGUSTA BV & W CORTEZ DR & N LAMON AV & N CICERO AV,2006,20351,29844,N LAMON AV & W AUGUSTA BV,N CICERO AV & W AUGUSTA BV,N LAMON AV & W CORTEZ DR,N CICERO AV & W CORTEZ DR,41.89865503600004,-87.74833872599999,census,41.898687195000036,-87.74589061499995,census,41.899571570000035,-87.74835882599996,census,41.9478747,-87.7471701,google
31,Alley Speed Hump Menu,W WRIGHTWOOD AV & W DRUMMOND PL & N LAMON AV & N CICERO AV,2007,1575,24949,N LAMON AV & W WRIGHTWOOD AV,N CICERO AV & W WRIGHTWOOD AV,N LAMON AV & W DRUMMOND PL,N CICERO AV & W DRUMMOND PL,41.927883637000036,-87.74891758999996,census,41.9282001,-87.7463838,google,41.92878409100007,-87.74894974899996,census,41.9288223,-87.7465563,google
31,Alley Resurface Menu,N KEATING AV & N CICERO AV & W WELLINGTON AV & W GEORGE ST,2010,7647,25143,N KEATING AV & W WELLINGTON AV,N CICERO AV & W WELLINGTON AV,N KEATING AV & W GEORGE ST,N CICERO AV & W GEORGE ST,41.93519983200008,-87.74546852699996,census,41.93518375200006,-87.74673881099994,census,41.93337480300005,-87.74539616899995,census,41.933357,-87.7465977,google
28,Alley Speed Hump Menu,W WASHINGTON & W MADISON ST & N KILPATRICK AV & N CICERO AV,2007,1500,22482,N KILPATRICK AV & W WASHINGTON,N CICERO AV & W WASHINGTON,N KILPATRICK AV & W MADISON ST,N CICERO AV & W MADISON ST,41.88184788700005,-87.74287167899996,census,41.881819747000065,-87.74533988999997,census,41.8805375,-87.7428092,google,41.880497,-87.745268,google
31,Alley Speed Hump Menu,N LAMON AV & N CICERO AV & W SCHUBERT AV & W PARKER AV,2008,2000,25030,N LAMON AV & W SCHUBERT AV,N CICERO AV & W SCHUBERT AV,N LAMON AV & W PARKER AV,N CICERO AV & W PARKER AV,41.929692586000044,-87.74898592799997,census,41.9295154,-87.7464458,google,41.93059706100007,-87.74901808699997,census,41.930525,-87.7464837,google
